id,name,region,city,address,latitude,longitude,phone,homepage_url,booking_url,hole_count,course_type,weekday_green_fee_min,weekend_green_fee_min,caddie_fee,cart_fee,night_round,no_caddie,two_player_allowed,resort,tags,image_url,description,business_status,source,updated_at,created_at
gc-18f9f355721d,라데나골프클럽,강원,춘천시,춘천시 신동면 칠전동길 72,37.8369429213366,127.715838891863,,,,27,회원제,,,,,false,false,false,false,{},,라데나골프클럽은(는) 강원 지역의 회원제 골프장입니다.,,public_data,2026-06-18T01:00:04.006Z,2026-06-18T01:00:04.006Z
gc-669d8ad13333,엘리시안 강촌컨트리클럽,강원,춘천시,춘천시 남산면 북한강변길 688,37.8300557977982,127.57878172946,,,,27,회원제,,,,,false,false,false,false,{},,엘리시안 강촌컨트리클럽은(는) 강원 지역의 회원제 골프장입니다.,,public_data,2026-06-18T01:00:04.006Z,2026-06-18T01:00:04.006Z
gc-5acca8d60a68,제이드팰리스 골프클럽,강원,춘천시,춘천시 남산면 경춘로 212-30,37.8307797553449,127.548170460554,,,,18,회원제,,,,,false,false,false,false,{},,제이드팰리스 골프클럽은(는) 강원 지역의 회원제 골프장입니다.,,public_data,2026-06-18T01:00:04.006Z,2026-06-18T01:00:04.006Z
gc-fa1419df8b1e,남춘천컨트리클럽,강원,춘천시,춘천시 신동면 오봉길 156,37.7855926209548,127.700960366465,,,,18,대중제,,,,,false,false,false,false,{},,남춘천컨트리클럽은(는) 강원 지역의 대중제 골프장입니다.,,public_data,2026-06-18T01:00:04.006Z,2026-06-18T01:00:04.006Z
gc-3526f59318a4,휘슬링락컨트리클럽,강원,춘천시,춘천시 남산면 동촌로 501,37.7730612102808,127.669709976041,,,,27,회원제,,,,,false,false,false,false,{},,휘슬링락컨트리클럽은(는) 강원 지역의 회원제 골프장입니다.,,public_data,2026-06-18T01:00:04.006Z,2026-06-18T01:00:04.006Z
gc-3ae54b5361c3,오너스골프클럽,강원,춘천시,춘천시 남산면 동촌로 667,37.7721785570099,127.654200050879,,,,18,대중제,,,,,false,false,false,false,{},,오너스골프클럽은(는) 강원 지역의 대중제 골프장입니다.,,public_data,2026-06-18T01:00:04.006Z,2026-06-18T01:00:04.006Z
gc-9e436bbbf364,파가니카컨트리클럽,강원,춘천시,춘천시 남면 소주고개로 145-10,37.7497160475065,127.619928617296,,,,18,대중제,,,,,false,false,false,false,{},,파가니카컨트리클럽은(는) 강원 지역의 대중제 골프장입니다.,,public_data,2026-06-18T01:00:04.006Z,2026-06-18T01:00:04.006Z
gc-56c3be8c5a61,더플레이어스 골프클럽,강원,춘천시,춘천시 동산면 새술막길 438,37.7776204120147,127.750533991715,,,,27,대중제,,,,,false,false,false,false,{},,더플레이어스 골프클럽은(는) 강원 지역의 대중제 골프장입니다.,,public_data,2026-06-18T01:00:04.006Z,2026-06-18T01:00:04.006Z
gc-6b8298356e4e,로드힐스골프클럽,강원,춘천시,춘천시 동산면 종자리로 148-16,37.747575327588,127.725551235643,,,,27,대중제,,,,,false,false,false,false,{},,로드힐스골프클럽은(는) 강원 지역의 대중제 골프장입니다.,,public_data,2026-06-18T01:00:04.006Z,2026-06-18T01:00:04.006Z
gc-a78a36b9d428,라비에벨컨트리클럽,강원,춘천시,춘천시 동산면 종자리로 436,37.7411958192197,127.757369977231,,,,36,대중제,,,,,false,false,false,false,{},,라비에벨컨트리클럽은(는) 강원 지역의 대중제 골프장입니다.,,public_data,2026-06-18T01:00:04.006Z,2026-06-18T01:00:04.006Z
gc-d7a401a860d3,베어크리크 춘천,강원,춘천시,춘천시 신동면 김유정로 730,37.76903936688,127.719301183153,,,,18,대중제,,,,,false,false,false,false,{},,베어크리크 춘천은(는) 강원 지역의 대중제 골프장입니다.,,public_data,2026-06-18T01:00:04.006Z,2026-06-18T01:00:04.006Z
gc-9a7cb8103191,오크밸리회원제골프장,강원,원주시,원주시 지정면 오크밸리1길 66,37.4343240018003,127.817512733666,,,,36,회원제,,,,,false,false,false,false,{},,오크밸리회원제골프장은(는) 강원 지역의 회원제 골프장입니다.,,public_data,2026-06-18T01:00:04.006Z,2026-06-18T01:00:04.006Z
gc-7b4833dc4475,월송리 컨트리클럽,강원,원주시,원주시 지정면 오크밸리2길 250,37.413907787106,127.822367179311,,,,18,대중제,,,,,false,false,false,false,{},,월송리 컨트리클럽은(는) 강원 지역의 대중제 골프장입니다.,,public_data,2026-06-18T01:00:04.006Z,2026-06-18T01:00:04.006Z
gc-40bd08295048,Oak Hills컨트리클럽,강원,원주시,원주시 지정면 오크밸리2길 58,37.4078166869562,127.808904182453,,,,18,회원제,,,,,false,false,false,false,{},,Oak Hills컨트리클럽은(는) 강원 지역의 회원제 골프장입니다.,,public_data,2026-06-18T01:00:04.006Z,2026-06-18T01:00:04.006Z
gc-3b9faaf01e87,성문안 컨트리클럽,강원,원주시,원주시 지정면 월송석화로 431,37.3945186687561,127.834946399203,,,,18,대중제,,,,,false,false,false,false,{},,성문안 컨트리클럽은(는) 강원 지역의 대중제 골프장입니다.,,public_data,2026-06-18T01:00:04.006Z,2026-06-18T01:00:04.006Z
gc-920a66bac706,센추리21컨트리클럽,강원,원주시,원주시 문막읍 궁말길 193,37.2814501148934,127.842416839704,,,,18,회원제,,,,,false,false,false,false,{},,센추리21컨트리클럽은(는) 강원 지역의 회원제 골프장입니다.,,public_data,2026-06-18T01:00:04.006Z,2026-06-18T01:00:04.006Z
gc-120fdf5098ca,센추리21컨트리클럽Ⅱ,강원,원주시,원주시 문막읍 궁말길 193,37.2814501148934,127.842416839704,,,,18,대중제,,,,,false,false,false,false,{},,센추리21컨트리클럽Ⅱ은(는) 강원 지역의 대중제 골프장입니다.,,public_data,2026-06-18T01:00:04.006Z,2026-06-18T01:00:04.006Z
gc-d2426892b3a5,센추리21퍼블릭,강원,원주시,원주시 문막읍 궁말길 193,37.2814501148934,127.842416839704,,,,9,대중제,,,,,false,false,false,false,{},,센추리21퍼블릭은(는) 강원 지역의 대중제 골프장입니다.,,public_data,2026-06-18T01:00:04.006Z,2026-06-18T01:00:04.006Z
gc-52110494ceac,파크밸리골프클럽,강원,원주시,원주시 소초면 바우실길 281,37.388890315126,128.013156594133,,,,18,대중제,,,,,false,false,false,false,{},,파크밸리골프클럽은(는) 강원 지역의 대중제 골프장입니다.,,public_data,2026-06-18T01:00:04.006Z,2026-06-18T01:00:04.006Z
gc-3eb069c5fb2a,동서울레스피아,강원,원주시,원주시 지정면 신평석화로 236,37.4008288189658,127.879409601494,,,,9,대중제,,,,,false,false,false,false,{},,동서울레스피아은(는) 강원 지역의 대중제 골프장입니다.,,public_data,2026-06-18T01:00:04.006Z,2026-06-18T01:00:04.006Z
gc-cbe46e8a03a2,인터불고원주골프클럽,강원,원주시,원주시 동부순환로 200(반곡동),37.3324424690963,127.974460088067,,,,9,대중제,,,,,false,false,false,false,{},,인터불고원주골프클럽은(는) 강원 지역의 대중제 골프장입니다.,,public_data,2026-06-18T01:00:04.006Z,2026-06-18T01:00:04.006Z
gc-aca146079a3b,오로라 골프 앤 리조트,강원,원주시,원주시 신림면 구학산로 1520,37.2029107834726,128.043154645841,,,,18,대중제,,,,,false,false,false,false,{},,오로라 골프 앤 리조트은(는) 강원 지역의 대중제 골프장입니다.,,public_data,2026-06-18T01:00:04.006Z,2026-06-18T01:00:04.006Z
gc-076abf5ece38,샌드파인골프클럽,강원,강릉시,강릉시 저동등길 53(저동),37.7962246482484,128.881013850573,,,,18,회원제,,,,,false,false,false,false,{},,샌드파인골프클럽은(는) 강원 지역의 회원제 골프장입니다.,,public_data,2026-06-18T01:00:04.006Z,2026-06-18T01:00:04.006Z
gc-b768a2002431,메이플비치골프&리조트,강원,강릉시,강릉시 강동면 풍호길 300-78,37.746647824005,128.968989626277,,,,18,대중제,,,,,false,false,false,false,{},,메이플비치골프&리조트은(는) 강원 지역의 대중제 골프장입니다.,,public_data,2026-06-18T01:00:04.006Z,2026-06-18T01:00:04.006Z
gc-5b16502994d3,O2리조트 골프장,강원,태백시,태백시 서학로 861,37.1706733779187,128.948085384031,,,,18,대중제,,,,,false,false,false,false,{},,O2리조트 골프장은(는) 강원 지역의 대중제 골프장입니다.,,public_data,2026-06-18T01:00:04.006Z,2026-06-18T01:00:04.006Z
gc-e6edfdd39527,O2리조트 퍼블릭골프장,강원,태백시,태백시 서학로 861,37.1706733779187,128.948085384031,,,,9,대중제,,,,,false,false,false,false,{},,O2리조트 퍼블릭골프장은(는) 강원 지역의 대중제 골프장입니다.,,public_data,2026-06-18T01:00:04.006Z,2026-06-18T01:00:04.006Z
gc-716535d8799a,설악프라자컨트리클럽,강원,속초시,속초시 미시령로2983번길 56-20,38.2082572330671,128.53083474954,,,,18,회원제,,,,,false,false,false,false,{},,설악프라자컨트리클럽은(는) 강원 지역의 회원제 골프장입니다.,,public_data,2026-06-18T01:00:04.006Z,2026-06-18T01:00:04.006Z
gc-d4f47a219511,영랑호컨트리클럽,강원,속초시,속초시 영랑호반길 170,38.2135488364885,128.577407452379,,,,9,대중제,,,,,false,false,false,false,{},,영랑호컨트리클럽은(는) 강원 지역의 대중제 골프장입니다.,,public_data,2026-06-18T01:00:04.006Z,2026-06-18T01:00:04.006Z
gc-5d96ff075544,파인밸리컨트리클럽,강원,삼척시,삼척시 근덕면 미근로 1629,37.3765019984105,129.204773468152,,,,18,대중제,,,,,false,false,false,false,{},,파인밸리컨트리클럽은(는) 강원 지역의 대중제 골프장입니다.,,public_data,2026-06-18T01:00:04.006Z,2026-06-18T01:00:04.006Z
gc-788ff880fb4f,블랙밸리컨트리클럽,강원,삼척시,삼척시 도계읍 도상로 307-84,37.2181825168724,129.07343341363,,,,18,대중제,,,,,false,false,false,false,{},,블랙밸리컨트리클럽은(는) 강원 지역의 대중제 골프장입니다.,,public_data,2026-06-18T01:00:04.006Z,2026-06-18T01:00:04.006Z
gc-e9127c84ddf1,소노펠리체 컨트리클럽 비발디파크 웨스트,강원,홍천군,홍천군 서면 한치골길 200,37.6386558071944,127.673647946883,,,,18,대중제,,,,,false,false,false,false,{},,소노펠리체 컨트리클럽 비발디파크 웨스트은(는) 강원 지역의 대중제 골프장입니다.,,public_data,2026-06-18T01:00:04.006Z,2026-06-18T01:00:04.006Z
gc-56adaea8c265,소노펠리체 컨트리클럽 비발디파크 마운틴,강원,홍천군,홍천군 서면 한치골길 264,37.6482244968436,127.685789397041,,,,9,대중제,,,,,false,false,false,false,{},,소노펠리체 컨트리클럽 비발디파크 마운틴은(는) 강원 지역의 대중제 골프장입니다.,,public_data,2026-06-18T01:00:04.006Z,2026-06-18T01:00:04.006Z
gc-ae905ec6b25f,소노펠리체 컨트리클럽 비발디파크 이스트,강원,홍천군,홍천군 서면 한치골길 541-123,37.666999762252,127.686354618555,,,,18,대중제,,,,,false,false,false,false,{},,소노펠리체 컨트리클럽 비발디파크 이스트은(는) 강원 지역의 대중제 골프장입니다.,,public_data,2026-06-18T01:00:04.006Z,2026-06-18T01:00:04.006Z
gc-3447dbe87ddc,비콘힐스골프클럽,강원,홍천군,홍천군 홍천읍 높은터로 533,37.6283077469114,127.864179453774,,,,18,대중제,,,,,false,false,false,false,{},,비콘힐스골프클럽은(는) 강원 지역의 대중제 골프장입니다.,,public_data,2026-06-18T01:00:04.006Z,2026-06-18T01:00:04.006Z
gc-d7beeda963dd,힐드로사이컨트리클럽,강원,홍천군,홍천군 남면 한서로 2840,37.5960686856879,127.717710032456,,,,18,대중제,,,,,false,false,false,false,{},,힐드로사이컨트리클럽은(는) 강원 지역의 대중제 골프장입니다.,,public_data,2026-06-18T01:00:04.006Z,2026-06-18T01:00:04.006Z
gc-426fc575906a,클럽모우골프 &라이프스타일,강원,홍천군,홍천군 서면 장락동길 111,37.6923845644555,127.566832092226,,,,27,대중제,,,,,false,false,false,false,{},,클럽모우골프 &라이프스타일은(는) 강원 지역의 대중제 골프장입니다.,,public_data,2026-06-18T01:00:04.006Z,2026-06-18T01:00:04.006Z
gc-8322ca96ec3b,세이지우드CC홍천,강원,홍천군,홍천군 두촌면 광석로 898-160,37.8860055264791,128.118713519224,,,,27,대중제,,,,,false,false,false,false,{},,세이지우드CC홍천은(는) 강원 지역의 대중제 골프장입니다.,,public_data,2026-06-18T01:00:04.006Z,2026-06-18T01:00:04.006Z
gc-690b34d2b582,샤인데일골프&리조트,강원,홍천군,홍천군 서면 한서로 247-156,37.6680275187538,127.558889051236,,,,27,대중제,,,,,false,false,false,false,{},,샤인데일골프&리조트은(는) 강원 지역의 대중제 골프장입니다.,,public_data,2026-06-18T01:00:04.006Z,2026-06-18T01:00:04.006Z
gc-568fcaa60a5e,카스카디아 골프클럽,강원,홍천군,홍천군 북방면 팔봉산로 1759,37.7251226642374,127.744259757592,,,,27,대중제,,,,,false,false,false,false,{},,카스카디아 골프클럽은(는) 강원 지역의 대중제 골프장입니다.,,public_data,2026-06-18T01:00:04.006Z,2026-06-18T01:00:04.006Z
gc-bbf51fd6cc91,웰리힐리컨트리클럽,강원,횡성군,횡성군 둔내면 고원로 451,37.4901264775059,128.250138360949,,,,36,회원제,,,,,false,false,false,false,{},,웰리힐리컨트리클럽은(는) 강원 지역의 회원제 골프장입니다.,,public_data,2026-06-18T01:00:04.006Z,2026-06-18T01:00:04.006Z
gc-ec8024eb7955,웰리힐리퍼블릭,강원,횡성군,횡성군 둔내면 고원로 451,37.4901264775059,128.250138360949,,,,10,대중제,,,,,false,false,false,false,{},,웰리힐리퍼블릭은(는) 강원 지역의 대중제 골프장입니다.,,public_data,2026-06-18T01:00:04.006Z,2026-06-18T01:00:04.006Z
gc-e494f9e1ff69,동원썬밸리컨트리클럽,강원,횡성군,횡성군 서원면 서원서로339번길 90,37.4840310259039,127.796494720937,,,,18,대중제,,,,,false,false,false,false,{},,동원썬밸리컨트리클럽은(는) 강원 지역의 대중제 골프장입니다.,,public_data,2026-06-18T01:00:04.006Z,2026-06-18T01:00:04.006Z
gc-17aba5f4eb83,알프스대영컨트리클럽,강원,횡성군,횡성군 우천면 한우로 1295,37.4642253472193,128.072535937277,,,,18,대중제,,,,,false,false,false,false,{},,알프스대영컨트리클럽은(는) 강원 지역의 대중제 골프장입니다.,,public_data,2026-06-18T01:00:04.006Z,2026-06-18T01:00:04.006Z
gc-43114c6913bc,벨라스톤컨트리클럽,강원,횡성군,횡성군 서원면 옥계9길 124,37.4503213484851,127.831193513791,,,,18,대중제,,,,,false,false,false,false,{},,벨라스톤컨트리클럽은(는) 강원 지역의 대중제 골프장입니다.,,public_data,2026-06-18T01:00:04.006Z,2026-06-18T01:00:04.006Z
gc-535182f1f0fa,올데이 옥스필드,강원,횡성군,횡성군 서원면 경강로 유현6길 28,37.5237776486479,127.842012139714,,,,18,대중제,,,,,false,false,false,false,{},,올데이 옥스필드은(는) 강원 지역의 대중제 골프장입니다.,,public_data,2026-06-18T01:00:04.006Z,2026-06-18T01:00:04.006Z
gc-fac50b03683e,벨라45 오너스 컨트리클럽,강원,횡성군,횡성군 서원면 창촌리 산132,37.471476509974,127.859579718745,,,,18,회원제,,,,,false,false,false,false,{},,벨라45 오너스 컨트리클럽은(는) 강원 지역의 회원제 골프장입니다.,,public_data,2026-06-18T01:00:04.006Z,2026-06-18T01:00:04.006Z
gc-a09581c58781,벨라45마스터스 컨트리클럽,강원,횡성군,횡성군 서원면 창촌리 산124,37.4717174711798,127.866076608968,,,,27,대중제,,,,,false,false,false,false,{},,벨라45마스터스 컨트리클럽은(는) 강원 지역의 대중제 골프장입니다.,,public_data,2026-06-18T01:00:04.006Z,2026-06-18T01:00:04.006Z
gc-908385d35939,동강시스타 골프장,강원,영월군,영월군 영월읍 사지막길 160,37.2177943871239,128.51873186171,,,,18,대중제,,,,,false,false,false,false,{},,동강시스타 골프장은(는) 강원 지역의 대중제 골프장입니다.,,public_data,2026-06-18T01:00:04.006Z,2026-06-18T01:00:04.006Z
gc-11423b427515,용평리조트골프클럽,강원,평창군,평창군 대관령면 올림픽로 715,37.6509448898618,128.705556644413,,,,18,회원제,,,,,false,false,false,false,{},,용평리조트골프클럽은(는) 강원 지역의 회원제 골프장입니다.,,public_data,2026-06-18T01:00:04.006Z,2026-06-18T01:00:04.006Z
gc-1e4b4a02117e,용평버치힐골프클럽,강원,평창군,평창군 대관령면 올림픽로 715,37.6509448898618,128.705556644413,,,,18,회원제,,,,,false,false,false,false,{},,용평버치힐골프클럽은(는) 강원 지역의 회원제 골프장입니다.,,public_data,2026-06-18T01:00:04.006Z,2026-06-18T01:00:04.006Z
gc-07cd3007c683,용평리조트대중골프장,강원,평창군,평창군 대관령면 올림픽로 715,37.6509448898618,128.705556644413,,,,9,대중제,,,,,false,false,false,false,{},,용평리조트대중골프장은(는) 강원 지역의 대중제 골프장입니다.,,public_data,2026-06-18T01:00:04.006Z,2026-06-18T01:00:04.006Z
gc-98e23645d4c7,휘닉스 컨트리클럽,강원,평창군,강원특별자치도 평창군 봉평면 면온리 1018-2,37.589263238945314,128.33557675866044,,,,18,회원제,,,,,false,false,false,false,{},,휘닉스 컨트리클럽은(는) 강원 지역의 회원제 골프장입니다.,,public_data,2026-06-18T01:00:04.006Z,2026-06-18T01:00:04.006Z
gc-716264430902,태기산 나인CC,강원,평창군,강원특별자치도 평창군 봉평면 태기로 174,37.5825421416807,128.326740667555,,,,9,대중제,,,,,false,false,false,false,{},,태기산 나인CC은(는) 강원 지역의 대중제 골프장입니다.,,public_data,2026-06-18T01:00:04.006Z,2026-06-18T01:00:04.006Z
gc-2b5762bfc60c,알펜시아컨트리클럽,강원,평창군,평창군 대관령면 솔봉로 325,37.6592541743687,128.684010667163,,,,27,회원제,,,,,false,false,false,false,{},,알펜시아컨트리클럽은(는) 강원 지역의 회원제 골프장입니다.,,public_data,2026-06-18T01:00:04.006Z,2026-06-18T01:00:04.006Z
gc-88fd5807de80,알펜시아 700골프클럽,강원,평창군,평창군 대관령면 솔봉로 325,37.6592541743687,128.684010667163,,,,18,대중제,,,,,false,false,false,false,{},,알펜시아 700골프클럽은(는) 강원 지역의 대중제 골프장입니다.,,public_data,2026-06-18T01:00:04.006Z,2026-06-18T01:00:04.006Z
gc-658a43bb77b8,하이원컨트리클럽,강원,정선군,정선군 고한읍 고한7길 399,37.1742297977261,128.842570754473,,,,18,대중제,,,,,false,false,false,false,{},,하이원컨트리클럽은(는) 강원 지역의 대중제 골프장입니다.,,public_data,2026-06-18T01:00:04.006Z,2026-06-18T01:00:04.006Z
gc-c97aebfdffe3,에콜리안정선골프장,강원,정선군,정선군 신동읍 새골길 112-49,37.2221149999408,128.679457715709,,,,9,대중제,,,,,false,false,false,false,{},,에콜리안정선골프장은(는) 강원 지역의 대중제 골프장입니다.,,public_data,2026-06-18T01:00:04.006Z,2026-06-18T01:00:04.006Z
gc-57059262e040,한탄강컨트리클럽,강원,철원군,철원군 갈말읍 순담길 59,38.1709445946776,127.293555015694,,,,18,대중제,,,,,false,false,false,false,{},,한탄강컨트리클럽은(는) 강원 지역의 대중제 골프장입니다.,,public_data,2026-06-18T01:00:04.006Z,2026-06-18T01:00:04.006Z
gc-af74a0cb154f,설악썬밸리컨트리클럽,강원,고성군,고성군 죽왕면 순포로 188,38.3161744774221,128.511503806851,,,,27,대중제,,,,,false,false,false,false,{},,설악썬밸리컨트리클럽은(는) 강원 지역의 대중제 골프장입니다.,,public_data,2026-06-18T01:00:04.006Z,2026-06-18T01:00:04.006Z
gc-da4ac7ff9f91,소노펠리체 컨트리클럽 델피노,강원,고성군,고성군 토성면 미시령옛길 1153,38.2131162786595,128.493440366843,,,,18,대중제,,,,,false,false,false,false,{},,소노펠리체 컨트리클럽 델피노은(는) 강원 지역의 대중제 골프장입니다.,,public_data,2026-06-18T01:00:04.006Z,2026-06-18T01:00:04.006Z
gc-4454a258c3a6,파인리즈컨트리클럽,강원,고성군,고성군 토성면 잼버리동로 267,38.243216190298,128.537580723637,,,,27,대중제,,,,,false,false,false,false,{},,파인리즈컨트리클럽은(는) 강원 지역의 대중제 골프장입니다.,,public_data,2026-06-18T01:00:04.006Z,2026-06-18T01:00:04.006Z
gc-318abdb864d5,설해원,강원,양양군,양양군 손양면 공항로 230,38.0555897450385,128.664155057919,,,,27,대중제,,,,,false,false,false,false,{},,설해원은(는) 강원 지역의 대중제 골프장입니다.,,public_data,2026-06-18T01:00:04.006Z,2026-06-18T01:00:04.006Z
gc-67d0f65e6b2d,설해원더 레전드 코스,강원,양양군,양양군 손양면 공항로 230,38.0555897450385,128.664155057919,,,,18,대중제,,,,,false,false,false,false,{},,설해원더 레전드 코스은(는) 강원 지역의 대중제 골프장입니다.,,public_data,2026-06-18T01:00:04.006Z,2026-06-18T01:00:04.006Z
gc-9a7ff16abcee,한원컨트리클럽,경기,용인시,경기도 용인시 처인구 남사읍 전나무골길2번길 94,37.157103731538,127.13056142746,,,,27,회원제,,,,,false,false,false,false,{},,한원컨트리클럽은(는) 경기 지역의 회원제 골프장입니다.,,public_data,2026-06-18T01:00:04.006Z,2026-06-18T01:00:04.006Z
gc-897c73dbf41b,양지파인골프클럽,경기,용인시,경기도 용인시 처인구 양지면 남평로 112,37.210689138288,127.29364692962,,,,27,대중제,,,,,false,false,false,false,{},,양지파인골프클럽은(는) 경기 지역의 대중제 골프장입니다.,,public_data,2026-06-18T01:00:04.006Z,2026-06-18T01:00:04.006Z
gc-38b838344176,수원컨트리클럽,경기,용인시,경기도 용인시 기흥구 중부대로 495,37.2813343609608,127.120332640766,,,,36,회원제,,,,,false,false,false,false,{},,수원컨트리클럽은(는) 경기 지역의 회원제 골프장입니다.,,public_data,2026-06-18T01:00:04.006Z,2026-06-18T01:00:04.006Z
gc-4af8a2f8ed32,플라자CC,경기,용인시,경기도 용인시 처인구 남사읍 봉무로 153번길 79,37.1336283949433,127.14698226012,,,,36,회원제,,,,,false,false,false,false,{},,플라자CC은(는) 경기 지역의 회원제 골프장입니다.,,public_data,2026-06-18T01:00:04.006Z,2026-06-18T01:00:04.006Z
gc-9da6f2a0f2d9,태광컨트리클럽(회원제),경기,용인시,경기도 용인시 기흥구 흥덕4로 77,37.2785734665911,127.089081801998,,,,27,회원제,,,,,false,false,false,false,{},,태광컨트리클럽(회원제)은(는) 경기 지역의 회원제 골프장입니다.,,public_data,2026-06-18T01:00:04.006Z,2026-06-18T01:00:04.006Z
gc-3d63d3179c0f,태광컨트리클럽(대중제),경기,용인시,경기도 용인시 기흥구 흥덕4로 77,37.2785734665911,127.089081801998,,,,9,대중제,,,,,false,false,false,false,{},,태광컨트리클럽(대중제)은(는) 경기 지역의 대중제 골프장입니다.,,public_data,2026-06-18T01:00:04.006Z,2026-06-18T01:00:04.006Z
gc-c2ad879f8193,한성컨트리클럽,경기,용인시,경기도 용인시 기흥구 구교동로 151,37.3070400686232,127.12311440438,,,,27,회원제,,,,,false,false,false,false,{},,한성컨트리클럽은(는) 경기 지역의 회원제 골프장입니다.,,public_data,2026-06-18T01:00:04.006Z,2026-06-18T01:00:04.006Z
gc-254a1c054bbe,골드컨트리클럽,경기,용인시,경기도 용인시 기흥구 기흥단지로 398,37.217404056926,127.138614334162,,,,36,회원제,,,,,false,false,false,false,{},,골드컨트리클럽은(는) 경기 지역의 회원제 골프장입니다.,,public_data,2026-06-18T01:00:04.006Z,2026-06-18T01:00:04.006Z
gc-0f218a599984,국가보훈부 88골프장,경기,용인시,경기도 용인시 기흥구 석성로 521번길 169,37.306732671299,127.160462250868,,,,36,회원제,,,,,false,false,false,false,{},,국가보훈부 88골프장은(는) 경기 지역의 회원제 골프장입니다.,,public_data,2026-06-18T01:00:04.006Z,2026-06-18T01:00:04.006Z
gc-e684f84c8fa4,레이크사이드CC(대중제),경기,용인시,경기도 용인시 처인구 모현읍 능원로 181,37.3241166580753,127.175268275755,,,,36,대중제,,,,,false,false,false,false,{},,레이크사이드CC(대중제)은(는) 경기 지역의 대중제 골프장입니다.,,public_data,2026-06-18T01:00:04.006Z,2026-06-18T01:00:04.006Z
gc-588d348bc962,레이크사이드CC(회원제),경기,용인시,경기도 용인시 처인구 모현읍 능원로 181,37.3241166580753,127.175268275755,,,,18,회원제,,,,,false,false,false,false,{},,레이크사이드CC(회원제)은(는) 경기 지역의 회원제 골프장입니다.,,public_data,2026-06-18T01:00:04.006Z,2026-06-18T01:00:04.006Z
gc-1475a1d902d7,남부컨트리클럽,경기,용인시,경기도 용인시 기흥구 사은로 163,37.2676071141644,127.118628245742,,,,18,회원제,,,,,false,false,false,false,{},,남부컨트리클럽은(는) 경기 지역의 회원제 골프장입니다.,,public_data,2026-06-18T01:00:04.006Z,2026-06-18T01:00:04.006Z
gc-a53c3fecd592,신원CC,경기,용인시,경기도 용인시 이동읍 이원로 225,37.1818091297286,127.241377177765,,,,27,회원제,,,,,false,false,false,false,{},,신원CC은(는) 경기 지역의 회원제 골프장입니다.,,public_data,2026-06-18T01:00:04.006Z,2026-06-18T01:00:04.006Z
gc-120c785ee7a3,은화삼컨트리클럽,경기,용인시,경기도 용인시 처인구 백옥대로 860-38,37.2153647111834,127.218965499884,,,,18,회원제,,,,,false,false,false,false,{},,은화삼컨트리클럽은(는) 경기 지역의 회원제 골프장입니다.,,public_data,2026-06-18T01:00:04.006Z,2026-06-18T01:00:04.006Z
gc-25de9ff08a30,아시아나컨트리클럽,경기,용인시,경기도 용인시 처인구 양지면 양대로 290,37.2546997034963,127.292670608818,,,,36,회원제,,,,,false,false,false,false,{},,아시아나컨트리클럽은(는) 경기 지역의 회원제 골프장입니다.,,public_data,2026-06-18T01:00:04.006Z,2026-06-18T01:00:04.006Z
gc-0c833ff6d95f,블루원용인CC(회원제),경기,용인시,경기도 용인시 처인구 원삼면 보개원삼로 1534번길 40,37.134173221852,127.325900163183,,,,18,회원제,,,,,false,false,false,false,{},,블루원용인CC(회원제)은(는) 경기 지역의 회원제 골프장입니다.,,public_data,2026-06-18T01:00:04.006Z,2026-06-18T01:00:04.006Z
gc-2ef4e18d677b,블루원용인CC(비회원제),경기,용인시,경기도 용인시 처인구 원삼면 보개원삼로 1534번길 40,37.134173221852,127.325900163183,,,,9,대중제,,,,,false,false,false,false,{},,블루원용인CC(비회원제)은(는) 경기 지역의 대중제 골프장입니다.,,public_data,2026-06-18T01:00:04.006Z,2026-06-18T01:00:04.006Z
gc-0086afc84101,코리아컨트리클럽,경기,용인시,경기도 용인시 처인구 이동읍 기흥단지로 579,37.2194071623658,127.154846656677,,,,27,회원제,,,,,false,false,false,false,{},,코리아컨트리클럽은(는) 경기 지역의 회원제 골프장입니다.,,public_data,2026-06-18T01:00:04.006Z,2026-06-18T01:00:04.006Z
gc-4487ee52808c,코리아대중CC,경기,용인시,경기도 용인시 기흥구 기흥단지로 224,37.2235240855674,127.119046263181,,,,9,대중제,,,,,false,false,false,false,{},,코리아대중CC은(는) 경기 지역의 대중제 골프장입니다.,,public_data,2026-06-18T01:00:04.006Z,2026-06-18T01:00:04.006Z
gc-20c1df4aa8fb,지산컨트리클럽,경기,용인시,경기도 용인시 처인구 원삼면 죽양대로 2000번길 60,37.2098757294811,127.335844920046,,,,27,회원제,,,,,false,false,false,false,{},,지산컨트리클럽은(는) 경기 지역의 회원제 골프장입니다.,,public_data,2026-06-18T01:00:04.006Z,2026-06-18T01:00:04.006Z
gc-4687a4044d34,지산퍼블릭,경기,용인시,경기도 용인시 처인구 원삼면 죽양대로 2100번길 60,37.2131778614014,127.328786786275,,,,9,대중제,,,,,false,false,false,false,{},,지산퍼블릭은(는) 경기 지역의 대중제 골프장입니다.,,public_data,2026-06-18T01:00:04.006Z,2026-06-18T01:00:04.006Z
gc-ab63350a5577,화산컨트리클럽,경기,용인시,경기도 용인시 처인구 이동읍 화산로 239,37.1479778314976,127.232274251736,,,,18,회원제,,,,,false,false,false,false,{},,화산컨트리클럽은(는) 경기 지역의 회원제 골프장입니다.,,public_data,2026-06-18T01:00:04.006Z,2026-06-18T01:00:04.006Z
gc-8b59a320f132,한림용인CC,경기,용인시,경기도 용인시 처인구 남사읍 경기동로 628,37.1255868069866,127.182905425438,,,,27,대중제,,,,,false,false,false,false,{},,한림용인CC은(는) 경기 지역의 대중제 골프장입니다.,,public_data,2026-06-18T01:00:04.006Z,2026-06-18T01:00:04.006Z
gc-748b687096d1,글렌로스 골프클럽,경기,용인시,경기도 용인시 처인구 포곡읍 에버랜드로 562번길 69,37.2944664882956,127.185738968163,,,,9,대중제,,,,,false,false,false,false,{},,글렌로스 골프클럽은(는) 경기 지역의 대중제 골프장입니다.,,public_data,2026-06-18T01:00:04.006Z,2026-06-18T01:00:04.006Z
gc-928514cac4c6,용인CC,경기,용인시,경기도 용인시 처인구 백암면 황새울로 255,37.1106698727256,127.344084710645,,,,9,대중제,,,,,false,false,false,false,{},,용인CC은(는) 경기 지역의 대중제 골프장입니다.,,public_data,2026-06-18T01:00:04.006Z,2026-06-18T01:00:04.006Z
gc-fc0e80550b95,석천CC,경기,용인시,경기도 용인시 처인구 백암면 황새울로 255,37.1106698727256,127.344084710645,,,,9,대중제,,,,,false,false,false,false,{},,석천CC은(는) 경기 지역의 대중제 골프장입니다.,,public_data,2026-06-18T01:00:04.006Z,2026-06-18T01:00:04.006Z
gc-c45d3f5d316d,써닝포인트 컨트리클럽,경기,용인시,경기도 용인시 처인구 백암면 고안로 51번길 205,37.143104041341,127.420208502611,,,,18,대중제,,,,,false,false,false,false,{},,써닝포인트 컨트리클럽은(는) 경기 지역의 대중제 골프장입니다.,,public_data,2026-06-18T01:00:04.006Z,2026-06-18T01:00:04.006Z
gc-f4bb9638f567,해솔리아 컨트리클럽,경기,용인시,경기도 용인시 처인구 이동읍 백자로 369,37.2048498724339,127.202059393005,,,,27,대중제,,,,,false,false,false,false,{},,해솔리아 컨트리클럽은(는) 경기 지역의 대중제 골프장입니다.,,public_data,2026-06-18T01:00:04.006Z,2026-06-18T01:00:04.006Z
gc-af63c289d999,세현CC,경기,용인시,경기도 용인시 처인구 이동읍 백자로 450,37.1898307350743,127.195381124056,,,,18,대중제,,,,,false,false,false,false,{},,세현CC은(는) 경기 지역의 대중제 골프장입니다.,,public_data,2026-06-18T01:00:04.006Z,2026-06-18T01:00:04.006Z
gc-27324df1736a,한양컨트리클럽,경기,고양시,경기도 고양시 덕양구 고양대로1643번길 164,37.6574943302532,126.863513025624,,,,36,회원제,,,,,false,false,false,false,{},,한양컨트리클럽은(는) 경기 지역의 회원제 골프장입니다.,,public_data,2026-06-18T01:00:04.006Z,2026-06-18T01:00:04.006Z
gc-3b60b2dadb3f,뉴코리아 컨트리클럽,경기,고양시,경기도 고양시 덕양구 신원2로 57,37.6649146499635,126.876705846025,,,,18,회원제,,,,,false,false,false,false,{},,뉴코리아 컨트리클럽은(는) 경기 지역의 회원제 골프장입니다.,,public_data,2026-06-18T01:00:04.006Z,2026-06-18T01:00:04.006Z
gc-8fbc2ee961a0,고양컨트리클럽,경기,고양시,경기도 고양시 덕양구 흥도로 304-23,37.6368795660515,126.858462589824,,,,9,대중제,,,,,false,false,false,false,{},,고양컨트리클럽은(는) 경기 지역의 대중제 골프장입니다.,,public_data,2026-06-18T01:00:04.006Z,2026-06-18T01:00:04.006Z
gc-a80360466b97,1·2·3 골프장,경기,고양시,경기도 고양시 덕양구 통일로 43-168,37.6414052244714,126.903049154807,,,,6,대중제,,,,,false,false,false,false,{},,1·2·3 골프장은(는) 경기 지역의 대중제 골프장입니다.,,public_data,2026-06-18T01:00:04.006Z,2026-06-18T01:00:04.006Z
gc-18640b625b94,올림픽 골프장,경기,고양시,경기도 고양시 덕양구 혜음로 301,37.7205884358877,126.894884319054,,,,9,대중제,,,,,false,false,false,false,{},,올림픽 골프장은(는) 경기 지역의 대중제 골프장입니다.,,public_data,2026-06-18T01:00:04.006Z,2026-06-18T01:00:04.006Z
gc-41b5c15f44da,일산스프링힐스 컨트리클럽,경기,고양시,경기도 고양시 일산동구 산황로 108,37.6562303208462,126.812685665254,,,,9,대중제,,,,,false,false,false,false,{},,일산스프링힐스 컨트리클럽은(는) 경기 지역의 대중제 골프장입니다.,,public_data,2026-06-18T01:00:04.006Z,2026-06-18T01:00:04.006Z
gc-1faa083d0616,한양파인컨트리클럽,경기,고양시,경기도 고양시 덕양구 고양대로 1591,37.6520363551289,126.863195294978,,,,9,대중제,,,,,false,false,false,false,{},,한양파인컨트리클럽은(는) 경기 지역의 대중제 골프장입니다.,,public_data,2026-06-18T01:00:04.006Z,2026-06-18T01:00:04.006Z
gc-210de13c89f8,남서울컨트리클럽,경기,성남시,경기도 성남시 분당구 판교백현로 161,37.3817595132597,127.082273076959,,,,18,회원제,,,,,false,false,false,false,{},,남서울컨트리클럽은(는) 경기 지역의 회원제 골프장입니다.,,public_data,2026-06-18T01:00:04.006Z,2026-06-18T01:00:04.006Z
gc-4731f8c98a6d,리베라컨트리클럽,경기,화성시,경기도 화성시 중리길 183,37.1904720176185,127.11260439051,,,,36,회원제,,,,,false,false,false,false,{},,리베라컨트리클럽은(는) 경기 지역의 회원제 골프장입니다.,,public_data,2026-06-18T01:00:04.006Z,2026-06-18T01:00:04.006Z
gc-7701abd77260,기흥컨트리클럽,경기,화성시,경기도 화성시 풀무골로106번길 244,37.1914005140878,127.146651875767,,,,36,회원제,,,,,false,false,false,false,{},,기흥컨트리클럽은(는) 경기 지역의 회원제 골프장입니다.,,public_data,2026-06-18T01:00:04.006Z,2026-06-18T01:00:04.006Z
gc-ccb45b4f27e1,발리오스컨트리클럽(회원제),경기,화성시,경기도 화성시 팔탄면 3.1만세로 641-28,37.1165485863229,126.860409015903,,,,18,회원제,,,,,false,false,false,false,{},,발리오스컨트리클럽(회원제)은(는) 경기 지역의 회원제 골프장입니다.,,public_data,2026-06-18T01:00:04.006Z,2026-06-18T01:00:04.006Z
gc-2db2d6cad688,발리오스컨트리클럽(비회원제),경기,화성시,경기도 화성시 팔탄면 3.1만세로 641-28,37.1165485863229,126.860409015903,,,,9,대중제,,,,,false,false,false,false,{},,발리오스컨트리클럽(비회원제)은(는) 경기 지역의 대중제 골프장입니다.,,public_data,2026-06-18T01:00:04.006Z,2026-06-18T01:00:04.006Z
gc-ee03e5ddbe9f,라비돌컨트리클럽,경기,화성시,경기도 화성시 정남면 세자로 286,37.1870993834287,126.984152259603,,,,9,대중제,,,,,false,false,false,false,{},,라비돌컨트리클럽은(는) 경기 지역의 대중제 골프장입니다.,,public_data,2026-06-18T01:00:04.006Z,2026-06-18T01:00:04.006Z
gc-4905c6ca9b75,화성 상록G.C,경기,화성시,경기도 화성시 풀무골로60번길 80,37.1970826229314,127.133319881059,,,,27,대중제,,,,,false,false,false,false,{},,화성 상록G.C은(는) 경기 지역의 대중제 골프장입니다.,,public_data,2026-06-18T01:00:04.006Z,2026-06-18T01:00:04.006Z
gc-5ec5b76d3c22,화성골프클럽,경기,화성시,경기도 화성시 남양읍 화성로 1393-27,37.2247867348522,126.834979307377,,,,9,대중제,,,,,false,false,false,false,{},,화성골프클럽은(는) 경기 지역의 대중제 골프장입니다.,,public_data,2026-06-18T01:00:04.006Z,2026-06-18T01:00:04.006Z
gc-c77232b99bd6,링크나인골프클럽,경기,화성시,경기도 화성시 마도면 해운로630번길 49,37.1718065568336,126.753337859465,,,,9,대중제,,,,,false,false,false,false,{},,링크나인골프클럽은(는) 경기 지역의 대중제 골프장입니다.,,public_data,2026-06-18T01:00:04.006Z,2026-06-18T01:00:04.006Z
gc-24a9087d99d6,양주 컨트리클럽,경기,남양주시,경기도 남양주시 화도읍 북한강로 1525-52,37.636203858404,127.348021618198,,,,18,회원제,,,,,false,false,false,false,{},,양주 컨트리클럽은(는) 경기 지역의 회원제 골프장입니다.,,public_data,2026-06-18T01:00:04.006Z,2026-06-18T01:00:04.006Z
gc-73a2a3982c35,광릉CC(회원제),경기,남양주시,경기도 남양주시 진접읍 팔야로 280,37.7589072273144,127.244583657531,,,,18,회원제,,,,,false,false,false,false,{},,광릉CC(회원제)은(는) 경기 지역의 회원제 골프장입니다.,,public_data,2026-06-18T01:00:04.006Z,2026-06-18T01:00:04.006Z
gc-66517960c8f8,광릉CC(비회원제),경기,남양주시,경기도 남양주시 진접읍 팔야로 280,37.7589072273144,127.244583657531,,,,6,대중제,,,,,false,false,false,false,{},,광릉CC(비회원제)은(는) 경기 지역의 대중제 골프장입니다.,,public_data,2026-06-18T01:00:04.006Z,2026-06-18T01:00:04.006Z
gc-7471c8142b1e,비전힐스CC,경기,남양주시,경기도 남양주시 화도읍 마치로 226-220,37.6480306678415,127.269615062632,,,,18,회원제,,,,,false,false,false,false,{},,비전힐스CC은(는) 경기 지역의 회원제 골프장입니다.,,public_data,2026-06-18T01:00:04.006Z,2026-06-18T01:00:04.006Z
gc-01a5e4501db9,해비치 컨트리클럽,경기,남양주시,경기도 남양주시 화도읍 재재기로 190번길 160,37.6134587063097,127.289894027742,,,,18,회원제,,,,,false,false,false,false,{},,해비치 컨트리클럽은(는) 경기 지역의 회원제 골프장입니다.,,public_data,2026-06-18T01:00:04.006Z,2026-06-18T01:00:04.006Z
gc-29fa36946d15,남양주CC,경기,남양주시,경기도 남양주시 오남읍 진건오남로 516-31,37.6790108308916,127.216144674262,,,,9,대중제,,,,,false,false,false,false,{},,남양주CC은(는) 경기 지역의 대중제 골프장입니다.,,public_data,2026-06-18T01:00:04.006Z,2026-06-18T01:00:04.006Z
gc-63e74643a178,더헤븐 컨트리클럽,경기,안산시,경기도 안산시 단원구 대선로466(대부남동),37.2290533778255,126.56532297369,,,,27,대중제,,,,,false,false,false,false,{},,더헤븐 컨트리클럽은(는) 경기 지역의 대중제 골프장입니다.,,public_data,2026-06-18T01:00:04.006Z,2026-06-18T01:00:04.006Z
gc-5e74f5c1f4b5,제일컨트리클럽,경기,안산시,경기도 안산시 상록구 태마당로28(부곡동),37.3226430233511,126.868529955967,,,,27,회원제,,,,,false,false,false,false,{},,제일컨트리클럽은(는) 경기 지역의 회원제 골프장입니다.,,public_data,2026-06-18T01:00:04.006Z,2026-06-18T01:00:04.006Z
gc-df2b984b36c9,솔트베이 골프클럽,경기,시흥시,경기도 시흥시 마유로 987 (장곡동),37.3911056218121,126.77732135435,,,,18,대중제,,,,,false,false,false,false,{},,솔트베이 골프클럽은(는) 경기 지역의 대중제 골프장입니다.,,public_data,2026-06-18T01:00:04.006Z,2026-06-18T01:00:04.006Z
gc-d5533edff8e8,아세코밸리골프클럽,경기,시흥시,경기도 시흥시 마전로 307 (거모동),37.3678166265456,126.771375724119,,,,9,대중제,,,,,false,false,false,false,{},,아세코밸리골프클럽은(는) 경기 지역의 대중제 골프장입니다.,,public_data,2026-06-18T01:00:04.006Z,2026-06-18T01:00:04.006Z
gc-a68be6870289,김포SEASIDE 컨트리클럽,경기,김포시,경기도 김포시 월곶면 김포대로 2081번길 219,37.710117534444116,126.53416592511554,,,,18,회원제,,,,,false,false,false,false,{},,김포SEASIDE 컨트리클럽은(는) 경기 지역의 회원제 골프장입니다.,,public_data,2026-06-18T01:00:04.006Z,2026-06-18T01:00:04.006Z
gc-962dc7cafd46,서서울 컨트리클럽,경기,파주시,경기도 파주시 광탄면 혜음로 324,37.731325450055,126.896468880386,,,,18,회원제,,,,,false,false,false,false,{},,서서울 컨트리클럽은(는) 경기 지역의 회원제 골프장입니다.,,public_data,2026-06-18T01:00:04.006Z,2026-06-18T01:00:04.006Z
gc-0ab02fc6c813,서원밸리 골프장,경기,파주시,경기도 파주시 광탄면 서원길 333,37.8157490998746,126.895247196106,,,,18,회원제,,,,,false,false,false,false,{},,서원밸리 골프장은(는) 경기 지역의 회원제 골프장입니다.,,public_data,2026-06-18T01:00:04.006Z,2026-06-18T01:00:04.006Z
gc-fabeaa53a815,서원힐스 골프장,경기,파주시,경기도 파주시 광탄면 서원길 333,37.8157490998746,126.895247196106,,,,27,대중제,,,,,false,false,false,false,{},,서원힐스 골프장은(는) 경기 지역의 대중제 골프장입니다.,,public_data,2026-06-18T01:00:04.006Z,2026-06-18T01:00:04.006Z
gc-81becbdb274e,파주 J-Public 골프장,경기,파주시,경기도 파주시 조리읍 장곡로 100,37.7496971545265,126.84459205832,,,,6,대중제,,,,,false,false,false,false,{},,파주 J-Public 골프장은(는) 경기 지역의 대중제 골프장입니다.,,public_data,2026-06-18T01:00:04.006Z,2026-06-18T01:00:04.006Z
gc-34f4d067cfc2,파주컨트리클럽,경기,파주시,경기도 파주시 법원읍 화합로 306,37.8478800003825,126.899866945317,,,,18,대중제,,,,,false,false,false,false,{},,파주컨트리클럽은(는) 경기 지역의 대중제 골프장입니다.,,public_data,2026-06-18T01:00:04.006Z,2026-06-18T01:00:04.006Z
gc-fb2e8a3b34d8,베스트밸리 골프클럽,경기,파주시,경기도 파주시 광탄면 장지산로200번길 32-41,37.7551620425719,126.884754027525,,,,9,대중제,,,,,false,false,false,false,{},,베스트밸리 골프클럽은(는) 경기 지역의 대중제 골프장입니다.,,public_data,2026-06-18T01:00:04.006Z,2026-06-18T01:00:04.006Z
gc-d5cd483c8c94,노스팜 컨트리클럽,경기,파주시,경기도 파주시 광탄면 쇠장이길 265,37.7888580628362,126.91101554382,,,,18,대중제,,,,,false,false,false,false,{},,노스팜 컨트리클럽은(는) 경기 지역의 대중제 골프장입니다.,,public_data,2026-06-18T01:00:04.006Z,2026-06-18T01:00:04.006Z
gc-d0e431ff250c,스마트KU 골프 파빌리온,경기,파주시,경기도 파주시 법원읍 보광로 1616,37.8285800785851,126.877596953566,,,,27,대중제,,,,,false,false,false,false,{},,스마트KU 골프 파빌리온은(는) 경기 지역의 대중제 골프장입니다.,,public_data,2026-06-18T01:00:04.006Z,2026-06-18T01:00:04.006Z
gc-9eb46dae9c9d,타이거CC 골프장,경기,파주시,경기도 파주시 법원읍 술이홀로 1803,37.9239813269278,126.89713153987,,,,18,대중제,,,,,false,false,false,false,{},,타이거CC 골프장은(는) 경기 지역의 대중제 골프장입니다.,,public_data,2026-06-18T01:00:04.006Z,2026-06-18T01:00:04.006Z
gc-e04bb1d7bba9,남촌컨트리클럽,경기,광주시,경기도 광주시 곤지암읍 부항길 135-38,37.3535860770814,127.413945844469,,,,18,회원제,,,,,false,false,false,false,{},,남촌컨트리클럽은(는) 경기 지역의 회원제 골프장입니다.,,public_data,2026-06-18T01:00:04.006Z,2026-06-18T01:00:04.006Z
gc-b37c66474de6,이스트밸리CC,경기,광주시,경기도 광주시 곤지암읍 건업길 195,37.4058005976175,127.384660543938,,,,27,회원제,,,,,false,false,false,false,{},,이스트밸리CC은(는) 경기 지역의 회원제 골프장입니다.,,public_data,2026-06-18T01:00:04.006Z,2026-06-18T01:00:04.006Z
gc-bed5fc0dc1f2,그린힐 컨트리클럽,경기,광주시,경기도 광주시 곤지암읍 내선길 176,37.3595254809028,127.42470873023,,,,18,회원제,,,,,false,false,false,false,{},,그린힐 컨트리클럽은(는) 경기 지역의 회원제 골프장입니다.,,public_data,2026-06-18T01:00:04.006Z,2026-06-18T01:00:04.006Z
gc-2fa514959418,강남300 컨트리클럽,경기,광주시,경기도 광주시 새말길 353(목동),37.3869501969731,127.182381902422,,,,18,회원제,,,,,false,false,false,false,{},,강남300 컨트리클럽은(는) 경기 지역의 회원제 골프장입니다.,,public_data,2026-06-18T01:00:04.006Z,2026-06-18T01:00:04.006Z
gc-4cbc2f4feecc,로제비앙GC,경기,광주시,경기 광주시 곤지암읍 오향리 156-1,37.3855718887826,127.373011089799,,,,27,대중제,,,,,false,false,false,false,{},,로제비앙GC은(는) 경기 지역의 대중제 골프장입니다.,,public_data,2026-06-18T01:00:04.006Z,2026-06-18T01:00:04.006Z
gc-14e8979016a9,곤지암GC,경기,광주시,경기도 광주시 도척면 도척윗로 280,37.3332936402777,127.295447423946,,,,18,회원제,,,,,false,false,false,false,{},,곤지암GC은(는) 경기 지역의 회원제 골프장입니다.,,public_data,2026-06-18T01:00:04.006Z,2026-06-18T01:00:04.006Z
gc-f28133275bb9,중부컨트리클럽,경기,광주시,경기도 광주시 곤지암읍 경충대로 451,37.3382816386251,127.357428897444,,,,18,회원제,,,,,false,false,false,false,{},,중부컨트리클럽은(는) 경기 지역의 회원제 골프장입니다.,,public_data,2026-06-18T01:00:04.006Z,2026-06-18T01:00:04.006Z
gc-3c54aee76615,뉴서울컨트리클럽,경기,광주시,경기도 광주시 삼지곡길 95(삼동),37.4252253615502,127.20953176314,,,,36,회원제,,,,,false,false,false,false,{},,뉴서울컨트리클럽은(는) 경기 지역의 회원제 골프장입니다.,,public_data,2026-06-18T01:00:04.006Z,2026-06-18T01:00:04.006Z
gc-3e570fca0614,캐슬렉스골프클럽,경기,하남시,경기도 하남시 감이로 317(감이동),37.4970187745443,127.169110033575,,,,18,회원제,,,,,false,false,false,false,{},,캐슬렉스골프클럽은(는) 경기 지역의 회원제 골프장입니다.,,public_data,2026-06-18T01:00:04.006Z,2026-06-18T01:00:04.006Z
gc-9944c1872c71,안양컨트리클럽,경기,군포시,경기도 군포시 군포로364(부곡동),37.3394048025688,126.939288363083,,,,18,회원제,,,,,false,false,false,false,{},,안양컨트리클럽은(는) 경기 지역의 회원제 골프장입니다.,,public_data,2026-06-18T01:00:04.006Z,2026-06-18T01:00:04.006Z
gc-f2cf5d51eba9,레이크우드 골프장(회원제),경기,양주시,경기도 양주시 만송로 244,37.7847589940837,127.087125498452,,,,27,회원제,,,,,false,false,false,false,{},,레이크우드 골프장(회원제)은(는) 경기 지역의 회원제 골프장입니다.,,public_data,2026-06-18T01:00:04.006Z,2026-06-18T01:00:04.006Z
gc-310ce4be2e54,레이크우드 골프장(비회원제),경기,양주시,경기도 양주시 만송로 244,37.7847589940837,127.087125498452,,,,9,대중제,,,,,false,false,false,false,{},,레이크우드 골프장(비회원제)은(는) 경기 지역의 대중제 골프장입니다.,,public_data,2026-06-18T01:00:04.006Z,2026-06-18T01:00:04.006Z
gc-9bb0cbe01084,송추 컨트리클럽,경기,양주시,경기도 양주시 광적면 쇠장이길 435,37.7932070318248,126.910459002129,,,,18,회원제,,,,,false,false,false,false,{},,송추 컨트리클럽은(는) 경기 지역의 회원제 골프장입니다.,,public_data,2026-06-18T01:00:04.006Z,2026-06-18T01:00:04.006Z
gc-82563fee9804,에이치원 클럽,경기,이천시,경기도 이천시 호법면 장자터로 115,37.1882506916944,127.402626361033,,,,18,회원제,,,,,false,false,false,false,{},,에이치원 클럽은(는) 경기 지역의 회원제 골프장입니다.,,public_data,2026-06-18T01:00:04.006Z,2026-06-18T01:00:04.006Z
gc-eb40a22304aa,뉴스프링빌골프장,경기,이천시,경기도 이천시 모가면 사실로 527번길 158,37.1542685904751,127.431405094081,,,,36,회원제,,,,,false,false,false,false,{},,뉴스프링빌골프장은(는) 경기 지역의 회원제 골프장입니다.,,public_data,2026-06-18T01:00:04.006Z,2026-06-18T01:00:04.006Z
gc-9b37cfc9caa8,뉴스프링빌골프장(대중형),경기,이천시,경기도 이천시 모가면 사실로 527번길 158,37.1542685904751,127.431405094081,,,,9,대중제,,,,,false,false,false,false,{},,뉴스프링빌골프장(대중형)은(는) 경기 지역의 대중제 골프장입니다.,,public_data,2026-06-18T01:00:04.006Z,2026-06-18T01:00:04.006Z
gc-bcdfbfe815c7,비에이비스타골프장(회원),경기,이천시,경기도 이천시 모가면 어농로 272,37.1805963585474,127.416935178868,,,,41,회원제,,,,,false,false,false,false,{},,비에이비스타골프장(회원)은(는) 경기 지역의 회원제 골프장입니다.,,public_data,2026-06-18T01:00:04.006Z,2026-06-18T01:00:04.006Z
gc-2f2cc6b9afe3,비에이비스타컨트리클럽(비회원),경기,이천시,경기도 이천시 모가면 어농로 272,37.1805963585474,127.416935178868,,,,18,대중제,,,,,false,false,false,false,{},,비에이비스타컨트리클럽(비회원)은(는) 경기 지역의 대중제 골프장입니다.,,public_data,2026-06-18T01:00:04.006Z,2026-06-18T01:00:04.006Z
gc-b046571c4182,더반 골프클럽,경기,이천시,경기도 이천시 대월면 대월로 627-141,37.2092449728206,127.492204112019,,,,9,대중제,,,,,false,false,false,false,{},,더반 골프클럽은(는) 경기 지역의 대중제 골프장입니다.,,public_data,2026-06-18T01:00:04.006Z,2026-06-18T01:00:04.006Z
gc-06bb9165507c,사우스스프링스C.C,경기,이천시,경기도 이천시 모가면 공원로 64,37.1752014628916,127.450643026036,,,,18,대중제,,,,,false,false,false,false,{},,사우스스프링스C.C은(는) 경기 지역의 대중제 골프장입니다.,,public_data,2026-06-18T01:00:04.006Z,2026-06-18T01:00:04.006Z
gc-014659dabae9,블랙스톤골프장(회원제),경기,이천시,경기도 이천시 장호원읍 장여로 459-160,37.1615537861069,127.617878033558,,,,18,회원제,,,,,false,false,false,false,{},,블랙스톤골프장(회원제)은(는) 경기 지역의 회원제 골프장입니다.,,public_data,2026-06-18T01:00:04.006Z,2026-06-18T01:00:04.006Z
gc-9de1c40fef77,블랙스톤골프장(대중형),경기,이천시,경기도 이천시 장호원읍 장여로 459-160,37.1615537861069,127.617878033558,,,,9,대중제,,,,,false,false,false,false,{},,블랙스톤골프장(대중형)은(는) 경기 지역의 대중제 골프장입니다.,,public_data,2026-06-18T01:00:04.006Z,2026-06-18T01:00:04.006Z
gc-403c1dbe574a,이천실크밸리골프클럽,경기,이천시,경기도 이천시 율면 임오산로 296,37.0810572247696,127.572420700688,,,,27,대중제,,,,,false,false,false,false,{},,이천실크밸리골프클럽은(는) 경기 지역의 대중제 골프장입니다.,,public_data,2026-06-18T01:00:04.006Z,2026-06-18T01:00:04.006Z
gc-fde386e28664,마이다스레이크 이천 골프&리조트,경기,이천시,경기도 이천시 설성면 설가로 602,37.1770667765958,127.524470407658,,,,27,대중제,,,,,false,false,false,false,{},,마이다스레이크 이천 골프&리조트은(는) 경기 지역의 대중제 골프장입니다.,,public_data,2026-06-18T01:00:04.006Z,2026-06-18T01:00:04.006Z
gc-085e92730123,웰링턴컨트리클럽,경기,이천시,경기도 이천시 모가면 사실로 725번길 119-73,37.1711213231586,127.418968520644,,,,27,회원제,,,,,false,false,false,false,{},,웰링턴컨트리클럽은(는) 경기 지역의 회원제 골프장입니다.,,public_data,2026-06-18T01:00:04.006Z,2026-06-18T01:00:04.006Z
gc-d76bd69feda5,더크로스비골프클럽,경기,이천시,경기도 이천시 호법면 중부대로798번길 177,37.2339122073526,127.41109216876,,,,27,대중제,,,,,false,false,false,false,{},,더크로스비골프클럽은(는) 경기 지역의 대중제 골프장입니다.,,public_data,2026-06-18T01:00:04.006Z,2026-06-18T01:00:04.006Z
gc-cd449267e87f,파인크리크C.C,경기,안성시,경기도 안성시 양성면 안성맞춤대로 2417-13,37.103514847839,127.23398405272,,,,27,대중제,,,,,false,false,false,false,{},,파인크리크C.C은(는) 경기 지역의 대중제 골프장입니다.,,public_data,2026-06-18T01:00:04.006Z,2026-06-18T01:00:04.006Z
gc-152613ee89f3,골프클럽Q,경기,안성시,경기도 안성시 죽산면 장계길 20-229,37.0468242865336,127.389582749216,,,,18,대중제,,,,,false,false,false,false,{},,골프클럽Q은(는) 경기 지역의 대중제 골프장입니다.,,public_data,2026-06-18T01:00:04.006Z,2026-06-18T01:00:04.006Z
gc-0151ec2b5b3a,마에스트로 CC,경기,안성시,경기도 안성시 양성면 안성맞춤대로 2134-36,37.1021784370267,127.258022875352,,,,18,대중제,,,,,false,false,false,false,{},,마에스트로 CC은(는) 경기 지역의 대중제 골프장입니다.,,public_data,2026-06-18T01:00:04.006Z,2026-06-18T01:00:04.006Z
gc-adc16ee54b54,안성컨트리클럽,경기,안성시,경기도 안성시 죽산면 걸미로 487,37.0385945146848,127.41316477995,,,,18,회원제,,,,,false,false,false,false,{},,안성컨트리클럽은(는) 경기 지역의 회원제 골프장입니다.,,public_data,2026-06-18T01:00:04.006Z,2026-06-18T01:00:04.006Z
gc-2e3210c9d979,안성베네스트G.C,경기,안성시,경기도 안성시 금광면 삼흥로 660,37.0270525296906,127.383944820507,,,,27,회원제,,,,,false,false,false,false,{},,안성베네스트G.C은(는) 경기 지역의 회원제 골프장입니다.,,public_data,2026-06-18T01:00:04.006Z,2026-06-18T01:00:04.006Z
gc-8f72ace0d89a,안성베네스트골프클럽 일반대중홀,경기,안성시,경기도 안성시 금광면 삼흥로 660,37.0270525296906,127.383944820507,,,,9,대중제,,,,,false,false,false,false,{},,안성베네스트골프클럽 일반대중홀은(는) 경기 지역의 대중제 골프장입니다.,,public_data,2026-06-18T01:00:04.006Z,2026-06-18T01:00:04.006Z
gc-2c8ffe1e182d,신안컨트리클럽,경기,안성시,경기도 안성시 고삼면 개울말길 149,37.0927595447355,127.25442201867,,,,18,회원제,,,,,false,false,false,false,{},,신안컨트리클럽은(는) 경기 지역의 회원제 골프장입니다.,,public_data,2026-06-18T01:00:04.006Z,2026-06-18T01:00:04.006Z
gc-2c90528d411e,신안 퍼블릭 CC,경기,안성시,경기도 안성시 고삼면 개울말길 149,37.0927595447355,127.25442201867,,,,9,대중제,,,,,false,false,false,false,{},,신안 퍼블릭 CC은(는) 경기 지역의 대중제 골프장입니다.,,public_data,2026-06-18T01:00:04.006Z,2026-06-18T01:00:04.006Z
gc-a026faeee8ac,윈체스트 골프클럽 대중,경기,안성시,경기도 안성시 서운면 오촌길 97-31,36.9595879439075,127.281860567298,,,,18,대중제,,,,,false,false,false,false,{},,윈체스트 골프클럽 대중은(는) 경기 지역의 대중제 골프장입니다.,,public_data,2026-06-18T01:00:04.006Z,2026-06-18T01:00:04.006Z
gc-5062dbcbfa1c,포웰CC 안성,경기,안성시,경기도 안성시 양성면 약산길 67-6,37.1175038882089,127.261523658546,,,,18,대중제,,,,,false,false,false,false,{},,포웰CC 안성은(는) 경기 지역의 대중제 골프장입니다.,,public_data,2026-06-18T01:00:04.006Z,2026-06-18T01:00:04.006Z
gc-16fca0551d98,한림안성,경기,안성시,경기도 안성시 양성면 양성로 349-61,37.0852223122103,127.200640109728,,,,9,대중제,,,,,false,false,false,false,{},,한림안성은(는) 경기 지역의 대중제 골프장입니다.,,public_data,2026-06-18T01:00:04.006Z,2026-06-18T01:00:04.006Z
gc-5495f8d48bf7,에덴블루 컨트리클럽,경기,안성시,경기도 안성시 죽산면 녹배길 175,37.0599504972085,127.380537654302,,,,27,대중제,,,,,false,false,false,false,{},,에덴블루 컨트리클럽은(는) 경기 지역의 대중제 골프장입니다.,,public_data,2026-06-18T01:00:04.006Z,2026-06-18T01:00:04.006Z
gc-1f3e33adbac2,이글몬트CC,경기,안성시,경기도 안성시 보개면 보삼로 106,37.0916860319311,127.33016456169,,,,27,대중제,,,,,false,false,false,false,{},,이글몬트CC은(는) 경기 지역의 대중제 골프장입니다.,,public_data,2026-06-18T01:00:04.006Z,2026-06-18T01:00:04.006Z
gc-b46ed64b80b6,필로스 골프클럽,경기,포천시,경기도 포천시 일동면 운악청계로 1507,37.9332321023118,127.333863948104,,,,27,대중제,,,,,false,false,false,false,{},,필로스 골프클럽은(는) 경기 지역의 대중제 골프장입니다.,,public_data,2026-06-18T01:00:04.006Z,2026-06-18T01:00:04.006Z
gc-4884a38f1896,포천아도니스 C.C,경기,포천시,경기도 포천시 신북면 포천로 2499,37.9708954325836,127.171996614016,,,,27,회원제,,,,,false,false,false,false,{},,포천아도니스 C.C은(는) 경기 지역의 회원제 골프장입니다.,,public_data,2026-06-18T01:00:04.006Z,2026-06-18T01:00:04.006Z
gc-e2614722e86e,포천아도니스 대중골프장,경기,포천시,경기도 포천시 신북면 포천로 2499,37.9708954325836,127.171996614016,,,,9,대중제,,,,,false,false,false,false,{},,포천아도니스 대중골프장은(는) 경기 지역의 대중제 골프장입니다.,,public_data,2026-06-18T01:00:04.006Z,2026-06-18T01:00:04.006Z
gc-fb0d61e3914d,베어크리크골프클럽,경기,포천시,경기도 포천시 화현면 달인동로 35,37.90170273355,127.278763456244,,,,36,대중제,,,,,false,false,false,false,{},,베어크리크골프클럽은(는) 경기 지역의 대중제 골프장입니다.,,public_data,2026-06-18T01:00:04.006Z,2026-06-18T01:00:04.006Z
gc-1914b4243487,몽베르 컨트리클럽(회원제),경기,포천시,경기도 포천시 영북면 산정호수로 359-12,38.073341480809,127.305682662082,,,,18,회원제,,,,,false,false,false,false,{},,몽베르 컨트리클럽(회원제)은(는) 경기 지역의 회원제 골프장입니다.,,public_data,2026-06-18T01:00:04.006Z,2026-06-18T01:00:04.006Z
gc-9d709ff43c33,몽베르 컨트리클럽(비회원제),경기,포천시,경기 포천시 영북면 산정리 산 60,38.08433182966815,127.3117509555886,,,,18,대중제,,,,,false,false,false,false,{},,몽베르 컨트리클럽(비회원제)은(는) 경기 지역의 대중제 골프장입니다.,,public_data,2026-06-18T01:00:04.006Z,2026-06-18T01:00:04.006Z
gc-02352ab50684,일동레이크 골프클럽,경기,포천시,경기도 포천시 일동면 화동로 738,37.9264650825377,127.325012078319,,,,18,회원제,,,,,false,false,false,false,{},,일동레이크 골프클럽은(는) 경기 지역의 회원제 골프장입니다.,,public_data,2026-06-18T01:00:04.006Z,2026-06-18T01:00:04.006Z
gc-d569726d2503,일동레이크대중제골프장,경기,포천시,경기도 포천시 일동면 화동로 738,37.9264650825377,127.325012078319,,,,12,대중제,,,,,false,false,false,false,{},,일동레이크대중제골프장은(는) 경기 지역의 대중제 골프장입니다.,,public_data,2026-06-18T01:00:04.006Z,2026-06-18T01:00:04.006Z
gc-f2158c0fa417,푸른솔 골프클럽 포천,경기,포천시,경기도 포천시 가산면 금우로276,37.8414254659181,127.234742117735,,,,27,대중제,,,,,false,false,false,false,{},,푸른솔 골프클럽 포천은(는) 경기 지역의 대중제 골프장입니다.,,public_data,2026-06-18T01:00:04.006Z,2026-06-18T01:00:04.006Z
gc-564e2ae6067a,포천힐스 컨트리클럽,경기,포천시,경기도 포천시 군내면 반월산성로 375번길 34,37.886412480582,127.230709816214,,,,27,대중제,,,,,false,false,false,false,{},,포천힐스 컨트리클럽은(는) 경기 지역의 대중제 골프장입니다.,,public_data,2026-06-18T01:00:04.006Z,2026-06-18T01:00:04.006Z
gc-b7fd5ee009ca,포레스트힐 컨트리클럽,경기,포천시,경기도 포천시 화현면 봉화로 253,37.8731490235485,127.276009090634,,,,24,대중제,,,,,false,false,false,false,{},,포레스트힐 컨트리클럽은(는) 경기 지역의 대중제 골프장입니다.,,public_data,2026-06-18T01:00:04.006Z,2026-06-18T01:00:04.006Z
gc-825e9c261de2,참밸리 컨트리클럽,경기,포천시,경기도 포천시 삼육사로 1982,37.8668399230398,127.136107459732,,,,18,대중제,,,,,false,false,false,false,{},,참밸리 컨트리클럽은(는) 경기 지역의 대중제 골프장입니다.,,public_data,2026-06-18T01:00:04.006Z,2026-06-18T01:00:04.006Z
gc-7c76a7546834,샴발라 컨트리클럽,경기,포천시,경기도 포천시 군내면 청군로 2856-93,37.8715019549309,127.255307204316,,,,18,대중제,,,,,false,false,false,false,{},,샴발라 컨트리클럽은(는) 경기 지역의 대중제 골프장입니다.,,public_data,2026-06-18T01:00:04.006Z,2026-06-18T01:00:04.006Z
gc-81ecacc0ae41,라싸 골프클럽,경기,포천시,경기도 포천시 이동면 제비울2길 161,37.99572279655,127.385961386318,,,,27,대중제,,,,,false,false,false,false,{},,라싸 골프클럽은(는) 경기 지역의 대중제 골프장입니다.,,public_data,2026-06-18T01:00:04.006Z,2026-06-18T01:00:04.006Z
gc-7ef394db717b,힐마루 골프앤리조트 포천,경기,포천시,경기도 포천시 영중면 금화봉 4길 77-1,37.9909689606756,127.224976213855,,,,45,대중제,,,,,false,false,false,false,{},,힐마루 골프앤리조트 포천은(는) 경기 지역의 대중제 골프장입니다.,,public_data,2026-06-18T01:00:04.006Z,2026-06-18T01:00:04.006Z
gc-a15f33b9f89a,더스타휴 컨트리클럽,경기,양평군,경기도 양평군 양동면 양동로 756,37.4765591198711,127.700437634401,,,,18,회원제,,,,,false,false,false,false,{},,더스타휴 컨트리클럽은(는) 경기 지역의 회원제 골프장입니다.,,public_data,2026-06-18T01:00:04.006Z,2026-06-18T01:00:04.006Z
gc-5ca66aa29c0b,양평TPC GC,경기,양평군,경기도 양평군 지평면 대평평장길 113-8,37.413668994346,127.639814572236,,,,27,대중제,,,,,false,false,false,false,{},,양평TPC GC은(는) 경기 지역의 대중제 골프장입니다.,,public_data,2026-06-18T01:00:04.006Z,2026-06-18T01:00:04.006Z
gc-88f7a6754606,YJC골프클럽,경기,여주시,경기도 여주시 월평로 78,37.278546085351,127.602624993789,,,,27,회원제,,,,,false,false,false,false,{},,YJC골프클럽은(는) 경기 지역의 회원제 골프장입니다.,,public_data,2026-06-18T01:00:04.006Z,2026-06-18T01:00:04.006Z
gc-59ee5f28d2c8,남여주대중골프장,경기,여주시,경기도 여주시 가여로 532,37.2284125840512,127.633511005887,,,,27,대중제,,,,,false,false,false,false,{},,남여주대중골프장은(는) 경기 지역의 대중제 골프장입니다.,,public_data,2026-06-18T01:00:04.006Z,2026-06-18T01:00:04.006Z
gc-7e1dadf46eaa,소피아그린,경기,여주시,경기도 여주시 점동면 소피아그린길 84,37.1717624693416,127.701434722273,,,,27,대중제,,,,,false,false,false,false,{},,소피아그린은(는) 경기 지역의 대중제 골프장입니다.,,public_data,2026-06-18T01:00:04.006Z,2026-06-18T01:00:04.006Z
gc-b55900a1fcf9,솔모로골프장,경기,여주시,경기도 여주시 가남읍 솔모로그린길 171,37.1920122274856,127.588336195624,,,,36,회원제,,,,,false,false,false,false,{},,솔모로골프장은(는) 경기 지역의 회원제 골프장입니다.,,public_data,2026-06-18T01:00:04.006Z,2026-06-18T01:00:04.006Z
gc-8a797fe2213a,금강컨트리클럽(회원),경기,여주시,경기도 여주시 가남읍 여주남로 541,37.242996981679,127.593146405693,,,,18,회원제,,,,,false,false,false,false,{},,금강컨트리클럽(회원)은(는) 경기 지역의 회원제 골프장입니다.,,public_data,2026-06-18T01:00:04.006Z,2026-06-18T01:00:04.006Z
gc-3f6cace5bf14,금강컨트리클럽(대중),경기,여주시,경기도 여주시 가남읍 여주남로 541,37.242996981679,127.593146405693,,,,9,대중제,,,,,false,false,false,false,{},,금강컨트리클럽(대중)은(는) 경기 지역의 대중제 골프장입니다.,,public_data,2026-06-18T01:00:04.006Z,2026-06-18T01:00:04.006Z
gc-51bfec26aa96,자유컨트리클럽,경기,여주시,경기도 여주시 가남읍 자유그린길 69,37.2082820693303,127.563188941372,,,,36,회원제,,,,,false,false,false,false,{},,자유컨트리클럽은(는) 경기 지역의 회원제 골프장입니다.,,public_data,2026-06-18T01:00:04.006Z,2026-06-18T01:00:04.006Z
gc-a862e6d054f2,빅토리아일반대중골프장,경기,여주시,경기도 여주시 가남읍 송삼로 191,37.180823064092,127.63100021793,,,,9,대중제,,,,,false,false,false,false,{},,빅토리아일반대중골프장은(는) 경기 지역의 대중제 골프장입니다.,,public_data,2026-06-18T01:00:04.006Z,2026-06-18T01:00:04.006Z
gc-c0e3c44b953c,아리지 골프장,경기,여주시,경기도 여주시 가남읍 아리지그린길 68,37.2116040297241,127.602218134271,,,,27,대중제,,,,,false,false,false,false,{},,아리지 골프장은(는) 경기 지역의 대중제 골프장입니다.,,public_data,2026-06-18T01:00:04.006Z,2026-06-18T01:00:04.006Z
gc-75ecca302d46,이포골프장,경기,여주시,경기도 여주시 금사면 장흥로 416,37.3924777716886,127.497457573878,,,,18,회원제,,,,,false,false,false,false,{},,이포골프장은(는) 경기 지역의 회원제 골프장입니다.,,public_data,2026-06-18T01:00:04.006Z,2026-06-18T01:00:04.006Z
gc-61ba4f976442,렉스필드 컨트리클럽(회원),경기,여주시,경기도 여주시 산북면 광여로 1115,37.3988920709185,127.431395053386,,,,18,회원제,,,,,false,false,false,false,{},,렉스필드 컨트리클럽(회원)은(는) 경기 지역의 회원제 골프장입니다.,,public_data,2026-06-18T01:00:04.006Z,2026-06-18T01:00:04.006Z
gc-657d8f5d1426,렉스필드 컨트리클럽(비회원),경기,여주시,경기도 여주시 산북면 광여로 1115,37.3988920709185,127.431395053386,,,,9,대중제,,,,,false,false,false,false,{},,렉스필드 컨트리클럽(비회원)은(는) 경기 지역의 대중제 골프장입니다.,,public_data,2026-06-18T01:00:04.006Z,2026-06-18T01:00:04.006Z
gc-07b4c0178c39,블루헤런G.C,경기,여주시,경기도 여주시 대신면 고달사로 67,37.3833461325324,127.64378607957,,,,18,회원제,,,,,false,false,false,false,{},,블루헤런G.C은(는) 경기 지역의 회원제 골프장입니다.,,public_data,2026-06-18T01:00:04.006Z,2026-06-18T01:00:04.006Z
gc-d388a17be449,신라컨트리클럽,경기,여주시,경기도 여주시 북내면 신라그린길 84,37.358100734042,127.691896053855,,,,27,대중제,,,,,false,false,false,false,{},,신라컨트리클럽은(는) 경기 지역의 대중제 골프장입니다.,,public_data,2026-06-18T01:00:04.006Z,2026-06-18T01:00:04.006Z
gc-ddb3947686d1,스카이밸리골프장(회원),경기,여주시,경기도 여주시 북내면 운촌길 254,37.3334050283559,127.726592566142,,,,18,회원제,,,,,false,false,false,false,{},,스카이밸리골프장(회원)은(는) 경기 지역의 회원제 골프장입니다.,,public_data,2026-06-18T01:00:04.006Z,2026-06-18T01:00:04.006Z
gc-6259847b3bba,스카이밸리골프장(비회원),경기,여주시,경기도 여주시 북내면 운촌길 254,37.3334050283559,127.726592566142,,,,18,대중제,,,,,false,false,false,false,{},,스카이밸리골프장(비회원)은(는) 경기 지역의 대중제 골프장입니다.,,public_data,2026-06-18T01:00:04.006Z,2026-06-18T01:00:04.006Z
gc-2cf253808f7a,캐슬파인골프클럽,경기,여주시,경기도 여주시 강천면 부평로 580,37.2982412390275,127.743417468918,,,,18,대중제,,,,,false,false,false,false,{},,캐슬파인골프클럽은(는) 경기 지역의 대중제 골프장입니다.,,public_data,2026-06-18T01:00:04.006Z,2026-06-18T01:00:04.006Z
gc-c6db7aa6cbe6,해슬리나인브릿지 컨트리클럽,경기,여주시,경기도 여주시 명품1로 76,37.2580290076329,127.616562294831,,,,18,회원제,,,,,false,false,false,false,{},,해슬리나인브릿지 컨트리클럽은(는) 경기 지역의 회원제 골프장입니다.,,public_data,2026-06-18T01:00:04.006Z,2026-06-18T01:00:04.006Z
gc-30fa81244c96,세라지오GC,경기,여주시,경기도 여주시 여양로 530,37.3290253826025,127.656093393689,,,,18,대중제,,,,,false,false,false,false,{},,세라지오GC은(는) 경기 지역의 대중제 골프장입니다.,,public_data,2026-06-18T01:00:04.006Z,2026-06-18T01:00:04.006Z
gc-13ed08c1c42b,360도 컨트리클럽,경기,여주시,경기도 여주시 강천면 부평로 609,37.3025719696415,127.73931898398,,,,18,대중제,,,,,false,false,false,false,{},,360도 컨트리클럽은(는) 경기 지역의 대중제 골프장입니다.,,public_data,2026-06-18T01:00:04.006Z,2026-06-18T01:00:04.006Z
gc-417ae947fa4c,여주썬밸리 컨트리클럽,경기,여주시,경기도 여주시 강천면 강문로 872,37.2716050291563,127.733978633871,,,,9,대중제,,,,,false,false,false,false,{},,여주썬밸리 컨트리클럽은(는) 경기 지역의 대중제 골프장입니다.,,public_data,2026-06-18T01:00:04.006Z,2026-06-18T01:00:04.006Z
gc-bd3f6011928e,페럼클럽,경기,여주시,경기도 여주시 점동면 점동로 181,37.2055142816242,127.69071303361,,,,18,대중제,,,,,false,false,false,false,{},,페럼클럽은(는) 경기 지역의 대중제 골프장입니다.,,public_data,2026-06-18T01:00:04.006Z,2026-06-18T01:00:04.006Z
gc-41b908991867,ROUTE52CC,경기,여주시,경기도 여주시 북내면 중암1길 36,37.350234298327,127.720137845936,,,,18,대중제,,,,,false,false,false,false,{},,ROUTE52CC은(는) 경기 지역의 대중제 골프장입니다.,,public_data,2026-06-18T01:00:04.006Z,2026-06-18T01:00:04.006Z
gc-79abd327c051,티클라우드컨트리클럽,경기,동두천시,경기도 동두천시 평화로 3202,37.9677965712269,127.089243801491,,,,18,회원제,,,,,false,false,false,false,{},,티클라우드컨트리클럽은(는) 경기 지역의 회원제 골프장입니다.,,public_data,2026-06-18T01:00:04.006Z,2026-06-18T01:00:04.006Z
gc-d14f87b6bb30,썬힐G.C,경기,가평군,경기도 가평군 조종면 운악청계로 809,37.8797738004161,127.351064283282,,,,36,대중제,,,,,false,false,false,false,{},,썬힐G.C은(는) 경기 지역의 대중제 골프장입니다.,,public_data,2026-06-18T01:00:04.006Z,2026-06-18T01:00:04.006Z
gc-14a40331e62c,마이다스밸리 청평 골프클럽,경기,가평군,경기도 가평군 설악면 다락재로 73-111,37.6657763485634,127.458696923265,,,,18,회원제,,,,,false,false,false,false,{},,마이다스밸리 청평 골프클럽은(는) 경기 지역의 회원제 골프장입니다.,,public_data,2026-06-18T01:00:04.006Z,2026-06-18T01:00:04.006Z
gc-b4f940680084,프리스틴밸리 골프클럽,경기,가평군,경기도 가평군 설악면 유명로 1243-199,37.6607471218653,127.456395141719,,,,18,회원제,,,,,false,false,false,false,{},,프리스틴밸리 골프클럽은(는) 경기 지역의 회원제 골프장입니다.,,public_data,2026-06-18T01:00:04.006Z,2026-06-18T01:00:04.006Z
gc-aa2c41b33610,아난티클럽서울,경기,가평군,경기도 가평군 설악면 유명로 961-34,37.6201197734476,127.482403979672,,,,27,회원제,,,,,false,false,false,false,{},,아난티클럽서울은(는) 경기 지역의 회원제 골프장입니다.,,public_data,2026-06-18T01:00:04.006Z,2026-06-18T01:00:04.006Z
gc-a8d0095f2145,가평 베네스트G.C,경기,가평군,경기도 가평군 상면 둔덕말길 232,37.7971307979864,127.305446420872,,,,27,회원제,,,,,false,false,false,false,{},,가평 베네스트G.C은(는) 경기 지역의 회원제 골프장입니다.,,public_data,2026-06-18T01:00:04.006Z,2026-06-18T01:00:04.006Z
gc-f0e079a5a368,크리스탈밸리C.C,경기,가평군,경기도 가평군 상면 대보간선로 602-111,37.7941321606329,127.387322213717,,,,18,회원제,,,,,false,false,false,false,{},,크리스탈밸리C.C은(는) 경기 지역의 회원제 골프장입니다.,,public_data,2026-06-18T01:00:04.006Z,2026-06-18T01:00:04.006Z
gc-8503021b2f0d,리앤리C.C,경기,가평군,경기도 가평군 조종면 운악청계로 702-24,37.8730300012694,127.362351368664,,,,27,대중제,,,,,false,false,false,false,{},,리앤리C.C은(는) 경기 지역의 대중제 골프장입니다.,,public_data,2026-06-18T01:00:04.006Z,2026-06-18T01:00:04.006Z
gc-068617149ff3,베뉴지CC,경기,가평군,경기도 가평군 가평읍 용추로 171번길 100,37.8467648847804,127.471699554307,,,,27,대중제,,,,,false,false,false,false,{},,베뉴지CC은(는) 경기 지역의 대중제 골프장입니다.,,public_data,2026-06-18T01:00:04.006Z,2026-06-18T01:00:04.006Z
gc-1635f231cd12,자유로컨트리클럽,경기,연천군,경기도 연천군 백학면 노아로297번길 179-55,37.997454081042,126.953553745248,,,,27,대중제,,,,,false,false,false,false,{},,자유로컨트리클럽은(는) 경기 지역의 대중제 골프장입니다.,,public_data,2026-06-18T01:00:04.006Z,2026-06-18T01:00:04.006Z
gc-ba63455c375f,창원컨트리클럽,경상,창원시,창원시 의창구 대봉로 137,35.2603549181413,128.664104192699,,,,18,회원제,,,,,false,false,false,false,{},,창원컨트리클럽은(는) 경상 지역의 회원제 골프장입니다.,,public_data,2026-06-18T01:00:04.006Z,2026-06-18T01:00:04.006Z
gc-bfc85ba9acd0,용원컨트리클럽,경상,창원시,창원시 진해구 가주로 133,35.1136520233281,128.825488553508,,,,27,회원제,,,,,false,false,false,false,{},,용원컨트리클럽은(는) 경상 지역의 회원제 골프장입니다.,,public_data,2026-06-18T01:00:04.006Z,2026-06-18T01:00:04.006Z
gc-745bb2ca1c75,아라미르골프앤리조트,경상,창원시,창원시 진해구 수제로 36,35.0885701282544,128.747862908254,,,,36,대중제,,,,,false,false,false,false,{},,아라미르골프앤리조트은(는) 경상 지역의 대중제 골프장입니다.,,public_data,2026-06-18T01:00:04.006Z,2026-06-18T01:00:04.006Z
gc-25bf0a715d27,진주컨트리클럽,경상,진주시,진주시 진성면 진성로 464번길 82,35.1762553567221,128.232929408042,,,,18,대중제,,,,,false,false,false,false,{},,진주컨트리클럽은(는) 경상 지역의 대중제 골프장입니다.,,public_data,2026-06-18T01:00:04.006Z,2026-06-18T01:00:04.006Z
gc-d18fa63ecde3,통영동원로얄컨트리클럽,경상,통영시,통영시 산양읍 담안길 240,34.8101335211616,128.427671319115,,,,18,대중제,,,,,false,false,false,false,{},,통영동원로얄컨트리클럽은(는) 경상 지역의 대중제 골프장입니다.,,public_data,2026-06-18T01:00:04.006Z,2026-06-18T01:00:04.006Z
gc-d052d2018eeb,삼삼컨트리클럽,경상,사천시,사천시 축동면 화당산로 224,35.1106005479291,128.044510021762,,,,9,대중제,,,,,false,false,false,false,{},,삼삼컨트리클럽은(는) 경상 지역의 대중제 골프장입니다.,,public_data,2026-06-18T01:00:04.006Z,2026-06-18T01:00:04.006Z
gc-7c631a53804f,김해정산컨트리클럽,경상,김해시,김해시 주촌면 서부로 1637번길 299-194,35.25562633667,128.80569074338,,,,27,회원제,,,,,false,false,false,false,{},,김해정산컨트리클럽은(는) 경상 지역의 회원제 골프장입니다.,,public_data,2026-06-18T01:00:04.006Z,2026-06-18T01:00:04.006Z
gc-60d067e583df,포웰CC 김해,경상,김해시,김해시 진례면 고모로 134번길 54-49,35.2321664789129,128.783994267516,,,,18,회원제,,,,,false,false,false,false,{},,포웰CC 김해은(는) 경상 지역의 회원제 골프장입니다.,,public_data,2026-06-18T01:00:04.006Z,2026-06-18T01:00:04.006Z
gc-49239d9192d1,김해상록컨트리클럽,경상,김해시,김해시 한림면 김해대로 974번길 198,35.2763222711031,128.797406595199,,,,18,대중제,,,,,false,false,false,false,{},,김해상록컨트리클럽은(는) 경상 지역의 대중제 골프장입니다.,,public_data,2026-06-18T01:00:04.006Z,2026-06-18T01:00:04.006Z
gc-57ce42c5a27d,리더스컨트리클럽,경상,밀양시,밀양시 활성로 455,35.4780841739985,128.812951274484,,,,27,대중제,,,,,false,false,false,false,{},,리더스컨트리클럽은(는) 경상 지역의 대중제 골프장입니다.,,public_data,2026-06-18T01:00:04.006Z,2026-06-18T01:00:04.006Z
gc-db7809fe87b9,밀양컨트리클럽,경상,밀양시,밀양시 부북면 전사포리 832,35.4600173636596,128.732301414516,,,,9,대중제,,,,,false,false,false,false,{},,밀양컨트리클럽은(는) 경상 지역의 대중제 골프장입니다.,,public_data,2026-06-18T01:00:04.006Z,2026-06-18T01:00:04.006Z
gc-a33f55e2efe0,밀양노벨컨트리클럽,경상,밀양시,밀양시 단장면 단장로 946,35.4778266645103,128.858381493828,,,,18,대중제,,,,,false,false,false,false,{},,밀양노벨컨트리클럽은(는) 경상 지역의 대중제 골프장입니다.,,public_data,2026-06-18T01:00:04.006Z,2026-06-18T01:00:04.006Z
gc-2b0f0302ba03,거제드비치골프클럽,경상,거제시,거제시 장목면 거제북로 1573,35.017577391518,128.677406079506,,,,18,회원제,,,,,false,false,false,false,{},,거제드비치골프클럽은(는) 경상 지역의 회원제 골프장입니다.,,public_data,2026-06-18T01:00:04.006Z,2026-06-18T01:00:04.006Z
gc-cc0251be98e6,거제뷰컨트리클럽,경상,거제시,거제시 거제면 두동로 259-80,34.8810744173147,128.590614753417,,,,18,대중제,,,,,false,false,false,false,{},,거제뷰컨트리클럽은(는) 경상 지역의 대중제 골프장입니다.,,public_data,2026-06-18T01:00:04.006Z,2026-06-18T01:00:04.006Z
gc-37a17c98d697,통도파인이스트컨트리클럽,경상,양산시,양산시 하북면 신평남부길 78-130,35.4920173773429,129.094980374055,,,,36,회원제,,,,,false,false,false,false,{},,통도파인이스트컨트리클럽은(는) 경상 지역의 회원제 골프장입니다.,,public_data,2026-06-18T01:00:04.006Z,2026-06-18T01:00:04.006Z
gc-7031ce912de8,동부산컨트리클럽,경상,양산시,양산시 매곡외산로 282,35.3637094787638,129.18328654139,,,,27,회원제,,,,,false,false,false,false,{},,동부산컨트리클럽은(는) 경상 지역의 회원제 골프장입니다.,,public_data,2026-06-18T01:00:04.006Z,2026-06-18T01:00:04.006Z
gc-e85969d2e40c,에이원컨트리클럽,경상,양산시,양산시 덕명로 190,35.3780549857528,129.175806283732,,,,27,회원제,,,,,false,false,false,false,{},,에이원컨트리클럽은(는) 경상 지역의 회원제 골프장입니다.,,public_data,2026-06-18T01:00:04.006Z,2026-06-18T01:00:04.006Z
gc-68d69c3be5e4,에덴밸리컨트리클럽,경상,양산시,양산시 원동면 어실로 910,35.4244124497992,128.991305907513,,,,18,회원제,,,,,false,false,false,false,{},,에덴밸리컨트리클럽은(는) 경상 지역의 회원제 골프장입니다.,,public_data,2026-06-18T01:00:04.006Z,2026-06-18T01:00:04.006Z
gc-68aed81d1384,양산컨트리클럽,경상,양산시,양산시 상북면 충렬로 687,35.4023286556628,129.040155963673,,,,27,대중제,,,,,false,false,false,false,{},,양산컨트리클럽은(는) 경상 지역의 대중제 골프장입니다.,,public_data,2026-06-18T01:00:04.006Z,2026-06-18T01:00:04.006Z
gc-e33531fed221,다이아몬드컨트리클럽,경상,양산시,양산시 상북면 공원로 305-391,35.4195722938982,129.029682759684,,,,18,대중제,,,,,false,false,false,false,{},,다이아몬드컨트리클럽은(는) 경상 지역의 대중제 골프장입니다.,,public_data,2026-06-18T01:00:04.006Z,2026-06-18T01:00:04.006Z
gc-afaf2442a07f,양산동원로얄CC,경상,양산시,양산시 어실로 380-45,35.3940115571281,129.021766468623,,,,18,대중제,,,,,false,false,false,false,{},,양산동원로얄CC은(는) 경상 지역의 대중제 골프장입니다.,,public_data,2026-06-18T01:00:04.006Z,2026-06-18T01:00:04.006Z
gc-1a979a076b10,의령친환경골프장,경상,의령군,의령군 의령읍 남강로 417,35.2930800969432,128.28771756206,,,,9,대중제,,,,,false,false,false,false,{},,의령친환경골프장은(는) 경상 지역의 대중제 골프장입니다.,,public_data,2026-06-18T01:00:04.006Z,2026-06-18T01:00:04.006Z
gc-f2927c01eff1,의령 리온컨트리클럽,경상,의령군,경남 의령군 칠곡면 외조리 740,35.34950866638445,128.1903049827595,,,,27,대중제,,,,,false,false,false,false,{},,의령 리온컨트리클럽은(는) 경상 지역의 대중제 골프장입니다.,,public_data,2026-06-18T01:00:04.006Z,2026-06-18T01:00:04.006Z
gc-5aff806af4f9,부곡컨트리클럽,경상,창녕군,창녕군 부곡면 온천로 445,35.4439229118112,128.578067287853,,,,18,회원제,,,,,false,false,false,false,{},,부곡컨트리클럽은(는) 경상 지역의 회원제 골프장입니다.,,public_data,2026-06-18T01:00:04.006Z,2026-06-18T01:00:04.006Z
gc-60336c4fc30b,고성노벨컨트리클럽,경상,고성군,고성군 회화면 회진로 567,35.0698092366265,128.405372459703,,,,27,회원제,,,,,false,false,false,false,{},,고성노벨컨트리클럽은(는) 경상 지역의 회원제 골프장입니다.,,public_data,2026-06-18T01:00:04.006Z,2026-06-18T01:00:04.006Z
gc-5eecfb4b22ad,고성컨트리클럽,경상,고성군,고성군 고성읍 월평3길 250,34.9477531276383,128.356977851093,,,,9,대중제,,,,,false,false,false,false,{},,고성컨트리클럽은(는) 경상 지역의 대중제 골프장입니다.,,public_data,2026-06-18T01:00:04.006Z,2026-06-18T01:00:04.006Z
gc-11e571536868,아난티남해CC,경상,남해군,남해군 남면 남서대로 1179번길 40-109,34.7777182696291,127.854726446021,,,,9,대중제,,,,,false,false,false,false,{},,아난티남해CC은(는) 경상 지역의 대중제 골프장입니다.,,public_data,2026-06-18T01:00:04.006Z,2026-06-18T01:00:04.006Z
gc-a2ecc8249f1d,아난티남해GC,경상,남해군,남해군 남면 남서대로 1179번길 40-109,34.7777182696291,127.854726446021,,,,9,대중제,,,,,false,false,false,false,{},,아난티남해GC은(는) 경상 지역의 대중제 골프장입니다.,,public_data,2026-06-18T01:00:04.006Z,2026-06-18T01:00:04.006Z
gc-69fe3eb3e177,사우스케이프오너스클럽,경상,남해군,남해군 창선면 흥선로 1545,34.8406275935052,128.061331128818,,,,18,대중제,,,,,false,false,false,false,{},,사우스케이프오너스클럽은(는) 경상 지역의 대중제 골프장입니다.,,public_data,2026-06-18T01:00:04.006Z,2026-06-18T01:00:04.006Z
gc-64e6bf7be0a4,경남스카이뷰CC,경상,함양군,함양군 서상면 소로길 226,35.6878232065779,127.717005915665,,,,18,대중제,,,,,false,false,false,false,{},,경남스카이뷰CC은(는) 경상 지역의 대중제 골프장입니다.,,public_data,2026-06-18T01:00:04.006Z,2026-06-18T01:00:04.006Z
gc-cd6b63162f39,거창친환경대중골프장,경상,거창군,거창군 가조면 우륵길 410-284,35.6937788660433,128.056404511949,,,,9,대중제,,,,,false,false,false,false,{},,거창친환경대중골프장은(는) 경상 지역의 대중제 골프장입니다.,,public_data,2026-06-18T01:00:04.006Z,2026-06-18T01:00:04.006Z
gc-993e536ad4ee,클럽디거창,경상,거창군,거창군 신원면 덕산리 산 13번지,35.6000221504631,127.911259364564,,,,27,대중제,,,,,false,false,false,false,{},,클럽디거창은(는) 경상 지역의 대중제 골프장입니다.,,public_data,2026-06-18T01:00:04.006Z,2026-06-18T01:00:04.006Z
gc-2a08fd4bdc5e,아델스코트 컨트리클럽,경상,합천군,합천군 가야면 가조가야로 1916-35,35.7065238255265,128.088529635253,,,,27,대중제,,,,,false,false,false,false,{},,아델스코트 컨트리클럽은(는) 경상 지역의 대중제 골프장입니다.,,public_data,2026-06-18T01:00:04.006Z,2026-06-18T01:00:04.006Z
gc-dd8a710bd41c,청하이스턴C.C,경상,포항시,경상북도 포항시 청하면 용산길 94,36.1651510448635,129.361048980089,,,,9,대중제,,,,,false,false,false,false,{},,청하이스턴C.C은(는) 경상 지역의 대중제 골프장입니다.,,public_data,2026-06-18T01:00:04.006Z,2026-06-18T01:00:04.006Z
gc-9c3aa425a935,포항C.C,경상,포항시,경상북도 포항시 송라면 동해대로 2751번길 123,36.22397147843987,129.34217575527472,,,,18,대중제,,,,,false,false,false,false,{},,포항C.C은(는) 경상 지역의 대중제 골프장입니다.,,public_data,2026-06-18T01:00:04.006Z,2026-06-18T01:00:04.006Z
gc-4fc6d117b7f4,경주신라C.C,경상,경주시,경상북도 경주시 보문로 319,35.8587074335372,129.281633887864,,,,36,회원제,,,,,false,false,false,false,{},,경주신라C.C은(는) 경상 지역의 회원제 골프장입니다.,,public_data,2026-06-18T01:00:04.006Z,2026-06-18T01:00:04.006Z
gc-4b9a9d1f37d8,보문G.C,경상,경주시,경상북도 경주시 보문로 182-14,35.8538689764214,129.27685412865,,,,18,대중제,,,,,false,false,false,false,{},,보문G.C은(는) 경상 지역의 대중제 골프장입니다.,,public_data,2026-06-18T01:00:04.006Z,2026-06-18T01:00:04.006Z
gc-a1d37ac059d4,경주C.C,경상,경주시,경상북도 경주시 보문로 182-98,35.8691255436334,129.255788587053,,,,27,대중제,,,,,false,false,false,false,{},,경주C.C은(는) 경상 지역의 대중제 골프장입니다.,,public_data,2026-06-18T01:00:04.006Z,2026-06-18T01:00:04.006Z
gc-4826ba3e38b9,마우나오션C.C,경상,경주시,경상북도 경주시 양남면 동남로 982,35.6909287451166,129.375464190088,,,,18,회원제,,,,,false,false,false,false,{},,마우나오션C.C은(는) 경상 지역의 회원제 골프장입니다.,,public_data,2026-06-18T01:00:04.006Z,2026-06-18T01:00:04.006Z
gc-16c25d6f3f20,마우나오션블루,경상,경주시,경상북도 경주시 양남면 동남로 982,35.6909287451166,129.375464190088,,,,9,대중제,,,,,false,false,false,false,{},,마우나오션블루은(는) 경상 지역의 대중제 골프장입니다.,,public_data,2026-06-18T01:00:04.006Z,2026-06-18T01:00:04.006Z
gc-eb9124b06908,가든골프클럽,경상,경주시,경상북도 경주시 불국로 289-17,35.7876928003298,129.321972908133,,,,9,대중제,,,,,false,false,false,false,{},,가든골프클럽은(는) 경상 지역의 대중제 골프장입니다.,,public_data,2026-06-18T01:00:04.006Z,2026-06-18T01:00:04.006Z
gc-130f7b88bcf3,우리G.C,경상,경주시,경상북도 경주시 양남면 동남로 972,35.6793271916167,129.376995261083,,,,9,대중제,,,,,false,false,false,false,{},,우리G.C은(는) 경상 지역의 대중제 골프장입니다.,,public_data,2026-06-18T01:00:04.006Z,2026-06-18T01:00:04.006Z
gc-881d18bae24f,디아너스C.C,경상,경주시,경상북도 경주시 보불로 391,35.8227629527473,129.295266157737,,,,27,회원제,,,,,false,false,false,false,{},,디아너스C.C은(는) 경상 지역의 회원제 골프장입니다.,,public_data,2026-06-18T01:00:04.006Z,2026-06-18T01:00:04.006Z
gc-e67c48835b2a,선리치G.C,경상,경주시,경상북도 경주시 안강읍 검단장골길 181-17,35.9475500754807,129.208153755249,,,,9,대중제,,,,,false,false,false,false,{},,선리치G.C은(는) 경상 지역의 대중제 골프장입니다.,,public_data,2026-06-18T01:00:04.006Z,2026-06-18T01:00:04.006Z
gc-6ec3dc97bc62,안강레전드G.C,경상,경주시,경상북도 경주시 안강읍 낙산길 85,35.995885315847,129.164489915587,,,,9,대중제,,,,,false,false,false,false,{},,안강레전드G.C은(는) 경상 지역의 대중제 골프장입니다.,,public_data,2026-06-18T01:00:04.006Z,2026-06-18T01:00:04.006Z
gc-d69bb1cfadc7,이스트힐C.C,경상,경주시,경상북도 경주시 양남면 외남로 1377,35.7202771858766,129.375635996022,,,,18,대중제,,,,,false,false,false,false,{},,이스트힐C.C은(는) 경상 지역의 대중제 골프장입니다.,,public_data,2026-06-18T01:00:04.006Z,2026-06-18T01:00:04.006Z
gc-6b7f785d4813,힐스카이C.C,경상,경주시,경상북도 경주시 천북면 천강로 412-299,35.9104700303636,129.314449722478,,,,24,대중제,,,,,false,false,false,false,{},,힐스카이C.C은(는) 경상 지역의 대중제 골프장입니다.,,public_data,2026-06-18T01:00:04.006Z,2026-06-18T01:00:04.006Z
gc-bd2c2f813e31,애플밸리C.C,경상,김천시,경상북도 김천시 어모면 작점로 606,36.2207904935878,128.057066303717,,,,9,대중제,,,,,false,false,false,false,{},,애플밸리C.C은(는) 경상 지역의 대중제 골프장입니다.,,public_data,2026-06-18T01:00:04.006Z,2026-06-18T01:00:04.006Z
gc-1e3e002ab2ce,포도C.C,경상,김천시,경상북도 김천시 구성면 남김천대로 2532,36.0420986798066,128.05669666121,,,,27,대중제,,,,,false,false,false,false,{},,포도C.C은(는) 경상 지역의 대중제 골프장입니다.,,public_data,2026-06-18T01:00:04.006Z,2026-06-18T01:00:04.006Z
gc-8894492ab1a6,남안동C.C,경상,안동시,경상북도 안동시 일직면 풍일로 1887,36.4779869639344,128.605653674006,,,,18,회원제,,,,,false,false,false,false,{},,남안동C.C은(는) 경상 지역의 회원제 골프장입니다.,,public_data,2026-06-18T01:00:04.006Z,2026-06-18T01:00:04.006Z
gc-9adfe4aa2a07,안동리버힐C.C,경상,안동시,경상북도 안동시 풍천면 풍일로 1572,36.4893094626202,128.575575027616,,,,18,회원제,,,,,false,false,false,false,{},,안동리버힐C.C은(는) 경상 지역의 회원제 골프장입니다.,,public_data,2026-06-18T01:00:04.006Z,2026-06-18T01:00:04.006Z
gc-94b561c2c97d,안동레이크골프클럽,경상,안동시,경상북도 안동시 관광단지로 316,36.5678490361928,128.773669181101,,,,18,대중제,,,,,false,false,false,false,{},,안동레이크골프클럽은(는) 경상 지역의 대중제 골프장입니다.,,public_data,2026-06-18T01:00:04.006Z,2026-06-18T01:00:04.006Z
gc-ddc7e02567ba,구미C.C,경상,구미시,경상북도 구미시 장천면 송백로 229,36.1697301860141,128.486875110989,,,,27,대중제,,,,,false,false,false,false,{},,구미C.C은(는) 경상 지역의 대중제 골프장입니다.,,public_data,2026-06-18T01:00:04.006Z,2026-06-18T01:00:04.006Z
gc-dac303292dae,오펠G.C,경상,영천시,경상북도 영천시 고경면 호국로 1221-24,36.0092424038247,129.05780013585,,,,27,회원제,,,,,false,false,false,false,{},,오펠G.C은(는) 경상 지역의 회원제 골프장입니다.,,public_data,2026-06-18T01:00:04.006Z,2026-06-18T01:00:04.006Z
gc-f7e7bf534d31,영천C.C,경상,영천시,경상북도 영천시 임고면 방목길 34-2,36.0480593479672,129.012366763808,,,,27,회원제,,,,,false,false,false,false,{},,영천C.C은(는) 경상 지역의 회원제 골프장입니다.,,public_data,2026-06-18T01:00:04.006Z,2026-06-18T01:00:04.006Z
gc-206bb0d5628c,시엘G.C,경상,영천시,경상북도 영천시 청통면 청통로 334-41,35.9937007052008,128.857214002593,,,,9,대중제,,,,,false,false,false,false,{},,시엘G.C은(는) 경상 지역의 대중제 골프장입니다.,,public_data,2026-06-18T01:00:04.006Z,2026-06-18T01:00:04.006Z
gc-91f353d46004,블루원상주골프리조트,경상,상주시,경상북도 상주시 모서면 화현3길 127,36.3340087121988,127.94438219774,,,,18,대중제,,,,,false,false,false,false,{},,블루원상주골프리조트은(는) 경상 지역의 대중제 골프장입니다.,,public_data,2026-06-18T01:00:04.006Z,2026-06-18T01:00:04.006Z
gc-1730ca5fe304,뉴스프링빌Ⅱ,경상,상주시,경상북도 상주시 모서면 백화로 40,36.2805712952864,127.86022243403,,,,18,대중제,,,,,false,false,false,false,{},,뉴스프링빌Ⅱ은(는) 경상 지역의 대중제 골프장입니다.,,public_data,2026-06-18T01:00:04.006Z,2026-06-18T01:00:04.006Z
gc-77f7a5893fb0,문경레저타운골프장,경상,문경시,경상북도 문경시 마성면 문경골프장길 240,36.7154628392048,128.161873090713,,,,18,대중제,,,,,false,false,false,false,{},,문경레저타운골프장은(는) 경상 지역의 대중제 골프장입니다.,,public_data,2026-06-18T01:00:04.006Z,2026-06-18T01:00:04.006Z
gc-fe29a1584040,대구C.C,경상,경산시,경상북도 경산시 진량읍 일연로 718-42,35.865359548748,128.815618922603,,,,27,회원제,,,,,false,false,false,false,{},,대구C.C은(는) 경상 지역의 회원제 골프장입니다.,,public_data,2026-06-18T01:00:04.006Z,2026-06-18T01:00:04.006Z
gc-addca096eb8a,인터불고컨트리클럽,경상,경산시,경상북도 경산시 삼성현로 614-26,35.7987802564923,128.764369025696,,,,27,회원제,,,,,false,false,false,false,{},,인터불고컨트리클럽은(는) 경상 지역의 회원제 골프장입니다.,,public_data,2026-06-18T01:00:04.006Z,2026-06-18T01:00:04.006Z
gc-5607a255716b,파라지오C.C,경상,의성군,경상북도 의성군 봉양면 농공마전길 167,36.2927570722123,128.553438068074,,,,18,대중제,,,,,false,false,false,false,{},,파라지오C.C은(는) 경상 지역의 대중제 골프장입니다.,,public_data,2026-06-18T01:00:04.006Z,2026-06-18T01:00:04.006Z
gc-c781c317ede3,오션비치C.C,경상,영덕군,경상북도 영덕군 강구면 동해대로 4265-43,36.3401724675117,129.373865973808,,,,27,대중제,,,,,false,false,false,false,{},,오션비치C.C은(는) 경상 지역의 대중제 골프장입니다.,,public_data,2026-06-18T01:00:04.006Z,2026-06-18T01:00:04.006Z
gc-911caf331754,그레이스C.C,경상,청도군,경상북도 청도군 이서면 서녁길 91,35.6641827973626,128.647767553548,,,,27,대중제,,,,,false,false,false,false,{},,그레이스C.C은(는) 경상 지역의 대중제 골프장입니다.,,public_data,2026-06-18T01:00:04.006Z,2026-06-18T01:00:04.006Z
gc-29c208d17553,오션힐스청도G.C,경상,청도군,경상북도 청도군 매전면 곰티로 370-204,35.6711804959138,128.820890512353,,,,18,대중제,,,,,false,false,false,false,{},,오션힐스청도G.C은(는) 경상 지역의 대중제 골프장입니다.,,public_data,2026-06-18T01:00:04.006Z,2026-06-18T01:00:04.006Z
gc-96fce8122d04,펜타뷰골프클럽,경상,청도군,경상북도 청도군 금천면 금천로 709,35.7421292040348,128.861732818863,,,,9,대중제,,,,,false,false,false,false,{},,펜타뷰골프클럽은(는) 경상 지역의 대중제 골프장입니다.,,public_data,2026-06-18T01:00:04.006Z,2026-06-18T01:00:04.006Z
gc-0665bc0c6cce,유니밸리C.C,경상,고령군,경상북도 고령군 고령읍 일량로 588,35.6815348942738,128.293898352433,,,,9,대중제,,,,,false,false,false,false,{},,유니밸리C.C은(는) 경상 지역의 대중제 골프장입니다.,,public_data,2026-06-18T01:00:04.006Z,2026-06-18T01:00:04.006Z
gc-8809b27cc2be,마스터피스CC,경상,고령군,경상북도 고령군 쌍림면 산막길 47-80,35.7043767638521,128.216210786482,,,,18,대중제,,,,,false,false,false,false,{},,마스터피스CC은(는) 경상 지역의 대중제 골프장입니다.,,public_data,2026-06-18T01:00:04.006Z,2026-06-18T01:00:04.006Z
gc-043cdfb2fdcd,대가야CC,경상,고령군,경상북도 고령군 대가야읍 대가야로 1103,35.7188918335394,128.250355799825,,,,9,대중제,,,,,false,false,false,false,{},,대가야CC은(는) 경상 지역의 대중제 골프장입니다.,,public_data,2026-06-18T01:00:04.006Z,2026-06-18T01:00:04.006Z
gc-385ee578118d,다산 샤인힐CC,경상,고령군,경상북도 고령군 다산면 벌지로 175-115,35.8150102239767,128.382904817328,,,,18,대중제,,,,,false,false,false,false,{},,다산 샤인힐CC은(는) 경상 지역의 대중제 골프장입니다.,,public_data,2026-06-18T01:00:04.006Z,2026-06-18T01:00:04.006Z
gc-66dd9ef01893,파미힐스C.C,경상,칠곡군,경상북도 칠곡군 왜관읍 봉계로 263,35.9981058454328,128.446683037431,,,,36,회원제,,,,,false,false,false,false,{},,파미힐스C.C은(는) 경상 지역의 회원제 골프장입니다.,,public_data,2026-06-18T01:00:04.006Z,2026-06-18T01:00:04.006Z
gc-e2e76f635c4a,세븐밸리C.C,경상,칠곡군,경상북도 칠곡군 왜관읍 봉계3길 180,36.0152661375184,128.465119459882,,,,18,대중제,,,,,false,false,false,false,{},,세븐밸리C.C은(는) 경상 지역의 대중제 골프장입니다.,,public_data,2026-06-18T01:00:04.006Z,2026-06-18T01:00:04.006Z
gc-bc41a2489944,칠곡아이위시C.C,경상,칠곡군,경북 칠곡군 기산면 노석리 992,35.94606901238291,128.3769487092413,,,,9,대중제,,,,,false,false,false,false,{},,칠곡아이위시C.C은(는) 경상 지역의 대중제 골프장입니다.,,public_data,2026-06-18T01:00:04.006Z,2026-06-18T01:00:04.006Z
gc-a1c00071e4b8,한맥C.C&노블리아,경상,예천군,경상북도 예천군 호명면 한맥골프장길 72,36.659937103134,128.518382202991,,,,18,대중제,,,,,false,false,false,false,{},,한맥C.C&노블리아은(는) 경상 지역의 대중제 골프장입니다.,,public_data,2026-06-18T01:00:04.006Z,2026-06-18T01:00:04.006Z
gc-078c6e56af3a,마린CC,경상,울진군,경상북도 울진군 매화면 매화로 115-99,36.8901357580634,129.399700188855,,,,18,대중제,,,,,false,false,false,false,{},,마린CC은(는) 경상 지역의 대중제 골프장입니다.,,public_data,2026-06-18T01:00:04.006Z,2026-06-18T01:00:04.006Z
gc-abff7021616b,빛고을컨트리클럽,전라,남구,광주광역시 남구 효우로 153(노대동),35.1003327130013,126.899115799239,,,,9,대중제,,,,,false,false,false,false,{},,빛고을컨트리클럽은(는) 전라 지역의 대중제 골프장입니다.,,public_data,2026-06-18T01:00:04.006Z,2026-06-18T01:00:04.006Z
gc-2159121d90f9,에콜리안광산골프장,전라,광산구,광주광역시 광산구 오목내길 26(연산동),35.1068396396447,126.741808823782,,,,9,대중제,,,,,false,false,false,false,{},,에콜리안광산골프장은(는) 전라 지역의 대중제 골프장입니다.,,public_data,2026-06-18T01:00:04.006Z,2026-06-18T01:00:04.006Z
gc-96881a9924c5,어등산컨트리클럽,전라,광산구,광주광역시 광산구 무진대로 31(운수동),35.1746968003012,126.773062727702,,,,27,대중제,,,,,false,false,false,false,{},,어등산컨트리클럽은(는) 전라 지역의 대중제 골프장입니다.,,public_data,2026-06-18T01:00:04.006Z,2026-06-18T01:00:04.006Z
gc-3b059ef8ec97,팔공컨트리클럽,경상,동구,대구광역시 동구 팔공산로 237길 186,35.9898734147535,128.719737445127,,,,18,회원제,,,,,false,false,false,false,{},,팔공컨트리클럽은(는) 경상 지역의 회원제 골프장입니다.,,public_data,2026-06-18T01:00:04.006Z,2026-06-18T01:00:04.006Z
gc-7b7b0fc1d2dd,냉천컨트리클럽,경상,달성군,대구광역시 달성군 가창면 가창로 1037-9,35.7966214912283,128.624520505857,,,,9,대중제,,,,,false,false,false,false,{},,냉천컨트리클럽은(는) 경상 지역의 대중제 골프장입니다.,,public_data,2026-06-18T01:00:04.006Z,2026-06-18T01:00:04.006Z
gc-5164e33152d9,구니컨트리클럽,경상,군위군,대구광역시 군위군 군위읍 도군로 2450,36.2539675879605,128.542905025036,,,,18,대중제,,,,,false,false,false,false,{},,구니컨트리클럽은(는) 경상 지역의 대중제 골프장입니다.,,public_data,2026-06-18T01:00:04.006Z,2026-06-18T01:00:04.006Z
gc-15dd2e00d6c7,오펠골프클럽,경상,군위군,대구광역시 군위군 산성면 부흥로 227,36.1122625509396,128.679793042412,,,,18,대중제,,,,,false,false,false,false,{},,오펠골프클럽은(는) 경상 지역의 대중제 골프장입니다.,,public_data,2026-06-18T01:00:04.006Z,2026-06-18T01:00:04.006Z
gc-7b483fb0f2d1,이지스카이컨트리클럽,경상,군위군,대구광역시 군위군 군위읍 대흥1길 48-100,36.289125167459,128.539546330945,,,,18,대중제,,,,,false,false,false,false,{},,이지스카이컨트리클럽은(는) 경상 지역의 대중제 골프장입니다.,,public_data,2026-06-18T01:00:04.006Z,2026-06-18T01:00:04.006Z
gc-28ed803e0e26,유성컨트리클럽,충청,대전,대전 유성구 현충원로 200(덕명동 215-7번지),36.3537342042459,127.290313578278,,,,18,회원제,,,,,false,false,false,false,{},,유성컨트리클럽은(는) 충청 지역의 회원제 골프장입니다.,,public_data,2026-06-18T01:00:04.006Z,2026-06-18T01:00:04.006Z
gc-4906278997cc,대덕복지센터,충청,대전,대전 유성구 유성대로 1689번길 69(전민동 463번지),36.4039896147136,127.395094219166,,,,9,대중제,,,,,false,false,false,false,{},,대덕복지센터은(는) 충청 지역의 대중제 골프장입니다.,,public_data,2026-06-18T01:00:04.006Z,2026-06-18T01:00:04.006Z
gc-c9369c96907d,금실대덕밸리CC,충청,대전,대전 유성구 테크노중앙로 210(용산동 676번지),36.4207308307018,127.403448694155,,,,9,대중제,,,,,false,false,false,false,{},,금실대덕밸리CC은(는) 충청 지역의 대중제 골프장입니다.,,public_data,2026-06-18T01:00:04.006Z,2026-06-18T01:00:04.006Z
gc-485bb35864fb,부산컨트리클럽,경상,금정구,부산 금정구 노포동 368,35.2995211598539,129.094333596075,,,,18,회원제,,,,,false,false,false,false,{},,부산컨트리클럽은(는) 경상 지역의 회원제 골프장입니다.,,public_data,2026-06-18T01:00:04.006Z,2026-06-18T01:00:04.006Z
gc-38215b654b62,동래베네스트골프클럽,경상,금정구,부산광역시 금정구 하정로 66,35.2651920311287,129.100410655539,,,,18,회원제,,,,,false,false,false,false,{},,동래베네스트골프클럽은(는) 경상 지역의 회원제 골프장입니다.,,public_data,2026-06-18T01:00:04.006Z,2026-06-18T01:00:04.006Z
gc-9262179bfeaa,하이스트컨트리클럽,경상,강서구,부산광역시 강서구 과학산단1로 172,35.139119508178,128.815049309755,,,,9,대중제,,,,,false,false,false,false,{},,하이스트컨트리클럽은(는) 경상 지역의 대중제 골프장입니다.,,public_data,2026-06-18T01:00:04.006Z,2026-06-18T01:00:04.006Z
gc-de756338755f,해라컨트리클럽,경상,강서구,부산광역시 강서구 과학산단로 306번길 77,35.1552692522626,128.838157017504,,,,9,대중제,,,,,false,false,false,false,{},,해라컨트리클럽은(는) 경상 지역의 대중제 골프장입니다.,,public_data,2026-06-18T01:00:04.006Z,2026-06-18T01:00:04.006Z
gc-2070c1511760,아시아드컨트리클럽,경상,기장군,부산광역시 기장군 일광읍 차양길 26,35.2871769019865,129.240169066116,,,,27,회원제,,,,,false,false,false,false,{},,아시아드컨트리클럽은(는) 경상 지역의 회원제 골프장입니다.,,public_data,2026-06-18T01:00:04.006Z,2026-06-18T01:00:04.006Z
gc-0cacc131d4d7,해운대컨트리클럽,경상,기장군,부산광역시 기장군 정관면 병산2로 265,35.3637062942455,129.20414767368,,,,27,회원제,,,,,false,false,false,false,{},,해운대컨트리클럽은(는) 경상 지역의 회원제 골프장입니다.,,public_data,2026-06-18T01:00:04.006Z,2026-06-18T01:00:04.006Z
gc-dceb317bb674,베이사이드골프클럽,경상,기장군,부산광역시 기장군 일광읍 이천8길 100,35.2818467709586,129.239535357132,,,,27,회원제,,,,,false,false,false,false,{},,베이사이드골프클럽은(는) 경상 지역의 회원제 골프장입니다.,,public_data,2026-06-18T01:00:04.006Z,2026-06-18T01:00:04.006Z
gc-a9d6992e56d4,해운대비치골프앤리조트,경상,기장군,부산광역시 기장군 기장읍 대변로 74,35.2299926137699,129.221612829403,,,,18,회원제,,,,,false,false,false,false,{},,해운대비치골프앤리조트은(는) 경상 지역의 회원제 골프장입니다.,,public_data,2026-06-18T01:00:04.006Z,2026-06-18T01:00:04.006Z
gc-80348568c7d7,기장동원로얄컨트리클럽,경상,기장군,부산 기장군 기장읍 만화리 104-5,35.25254245153413,129.18922395097297,,,,9,대중제,,,,,false,false,false,false,{},,기장동원로얄컨트리클럽은(는) 경상 지역의 대중제 골프장입니다.,,public_data,2026-06-18T01:00:04.006Z,2026-06-18T01:00:04.006Z
gc-4fba6a0ae29e,스톤게이트컨트리클럽,경상,기장군,부산광역시 기장군 일광읍 곡천길 317,35.2822423175627,129.201510405607,,,,18,대중제,,,,,false,false,false,false,{},,스톤게이트컨트리클럽은(는) 경상 지역의 대중제 골프장입니다.,,public_data,2026-06-18T01:00:04.006Z,2026-06-18T01:00:04.006Z
gc-dd6fca373d1b,인서울27골프클럽,서울,강서구,서울특별시 강서구 오정로 443-198,37.5467197403361,126.795778721308,,,,27,대중제,,,,,false,false,false,false,{},,인서울27골프클럽은(는) 서울 지역의 대중제 골프장입니다.,,public_data,2026-06-18T01:00:04.006Z,2026-06-18T01:00:04.006Z
gc-2b09ff38b37c,세종에머슨컨트리클럽,충청,전의면,세종특별자치시 전의면 운주산로 1510,36.6969492070113,127.185332809642,,,,27,회원제,,,,,false,false,false,false,{},,세종에머슨컨트리클럽은(는) 충청 지역의 회원제 골프장입니다.,,public_data,2026-06-18T01:00:04.006Z,2026-06-18T01:00:04.006Z
gc-dc3aed15fe4c,건설공제조합세종필드골프클럽,충청,정안세종로,세종특별자치시 정안세종로  1569,36.5385858687258,127.261911994898,,,,18,대중제,,,,,false,false,false,false,{},,건설공제조합세종필드골프클럽은(는) 충청 지역의 대중제 골프장입니다.,,public_data,2026-06-18T01:00:04.006Z,2026-06-18T01:00:04.006Z
gc-1e8879a575c1,세종레이캐슬골프&리조트,충청,전의면,세종특별자치시 전의면 의당전의로 252,36.6181755687316,127.19082091708,,,,27,대중제,,,,,false,false,false,false,{},,세종레이캐슬골프&리조트은(는) 충청 지역의 대중제 골프장입니다.,,public_data,2026-06-18T01:00:04.006Z,2026-06-18T01:00:04.006Z
gc-312ef6603be3,보라골프장,경상,울주군,울주군 삼동면 삼동로 404,35.4969566616876,129.12837497686,,,,27,회원제,,,,,false,false,false,false,{},,보라골프장은(는) 경상 지역의 회원제 골프장입니다.,,public_data,2026-06-18T01:00:04.006Z,2026-06-18T01:00:04.006Z
gc-8c92f9985671,삼남골프장,경상,울주군,울주군 삼남면 방기가천로 179,35.5098282780735,129.071020709634,,,,9,대중제,,,,,false,false,false,false,{},,삼남골프장은(는) 경상 지역의 대중제 골프장입니다.,,public_data,2026-06-18T01:00:04.006Z,2026-06-18T01:00:04.006Z
gc-9407b216837c,더골프골프장,경상,울주군,울주군 서생면 용연길 206-52,35.3652777099493,129.310406839136,,,,18,대중제,,,,,false,false,false,false,{},,더골프골프장은(는) 경상 지역의 대중제 골프장입니다.,,public_data,2026-06-18T01:00:04.006Z,2026-06-18T01:00:04.006Z
gc-3d725200e925,울산골프장,경상,울주군,울주군 웅촌면 웅촌로 1,35.4499124497015,129.188001730736,,,,27,회원제,,,,,false,false,false,false,{},,울산골프장은(는) 경상 지역의 회원제 골프장입니다.,,public_data,2026-06-18T01:00:04.006Z,2026-06-18T01:00:04.006Z
gc-bb197f80e910,베이스타즈CC,경상,북구,북구 미포산업로 800,35.5849482822952,129.433327366033,,,,18,대중제,,,,,false,false,false,false,{},,베이스타즈CC은(는) 경상 지역의 대중제 골프장입니다.,,public_data,2026-06-18T01:00:04.006Z,2026-06-18T01:00:04.006Z
gc-442afb70220e,오르비스골프클럽,경상,울주군,울주군 온양읍 망양리 산14-9,35.4491591360138,129.275957270126,,,,18,대중제,,,,,false,false,false,false,{},,오르비스골프클럽은(는) 경상 지역의 대중제 골프장입니다.,,public_data,2026-06-18T01:00:04.006Z,2026-06-18T01:00:04.006Z
gc-fa1a5b7b0f98,인천국제컨트리클럽,경기,인천시,인천시 서구 도요지로 37,37.5628238881646,126.659824793588,,,,18,회원제,,,,,false,false,false,false,{},,인천국제컨트리클럽은(는) 경기 지역의 회원제 골프장입니다.,,public_data,2026-06-18T01:00:04.006Z,2026-06-18T01:00:04.006Z
gc-68bd427a4957,송도골프클럽,경기,인천시,인천시 연수구 능허대로 236,37.4148715306309,126.650561495942,,,,8,대중제,,,,,false,false,false,false,{},,송도골프클럽은(는) 경기 지역의 대중제 골프장입니다.,,public_data,2026-06-18T01:00:04.006Z,2026-06-18T01:00:04.006Z
gc-60319bf1693c,인천그랜드컨트리클럽,경기,인천시,인천시 서구 원석로 195,37.5137587411859,126.641172301129,,,,18,대중제,,,,,false,false,false,false,{},,인천그랜드컨트리클럽은(는) 경기 지역의 대중제 골프장입니다.,,public_data,2026-06-18T01:00:04.006Z,2026-06-18T01:00:04.006Z
gc-b0d53a657195,클럽72(바다),경기,인천시,인천시 중구 공항동로 392,37.4845900396053,126.46929277658,,,,63,대중제,,,,,false,false,false,false,{},,클럽72(바다)은(는) 경기 지역의 대중제 골프장입니다.,,public_data,2026-06-18T01:00:04.006Z,2026-06-18T01:00:04.006Z
gc-a7bb99a4bcec,클럽72(하늘),경기,인천시,인천시 중구 공항동로135번길 267,37.4538394151484,126.483958911552,,,,18,대중제,,,,,false,false,false,false,{},,클럽72(하늘)은(는) 경기 지역의 대중제 골프장입니다.,,public_data,2026-06-18T01:00:04.006Z,2026-06-18T01:00:04.006Z
gc-fa55dbc73e9b,베어즈베스트청라골프클럽,경기,인천시,인천시 서구 청라대로 316번길 45,37.5486560424509,126.635928268879,,,,27,대중제,,,,,false,false,false,false,{},,베어즈베스트청라골프클럽은(는) 경기 지역의 대중제 골프장입니다.,,public_data,2026-06-18T01:00:04.006Z,2026-06-18T01:00:04.006Z
gc-781728826076,석모도컨트리클럽,경기,인천시,인천시 강화군 어류정길 177,37.65368088056977,126.34461559131444,,,,18,대중제,,,,,false,false,false,false,{},,석모도컨트리클럽은(는) 경기 지역의 대중제 골프장입니다.,,public_data,2026-06-18T01:00:04.006Z,2026-06-18T01:00:04.006Z
gc-496303f3c77c,오렌지듄스 영종골프클럽,경기,인천시,인천 중구 운서동 3215,37.43446486081986,126.455114630229,,,,18,대중제,,,,,false,false,false,false,{},,오렌지듄스 영종골프클럽은(는) 경기 지역의 대중제 골프장입니다.,,public_data,2026-06-18T01:00:04.006Z,2026-06-18T01:00:04.006Z
gc-868a31e611a3,강화 선두리 골프장,경기,인천시,인천시 강화군 해안남로 474번길 59,37.602858480072,126.506561003866,,,,9,대중제,,,,,false,false,false,false,{},,강화 선두리 골프장은(는) 경기 지역의 대중제 골프장입니다.,,public_data,2026-06-18T01:00:04.006Z,2026-06-18T01:00:04.006Z
gc-043ae5d51851,베르힐CC 영종,경기,인천시,인천시 중구 한상중앙로 66(중산동),37.5258296353539,126.562698539353,,,,36,대중제,,,,,false,false,false,false,{},,베르힐CC 영종은(는) 경기 지역의 대중제 골프장입니다.,,public_data,2026-06-18T01:00:04.006Z,2026-06-18T01:00:04.006Z
gc-4c57c6fd7298,디오션CC,전라,전남,전남 여수시 화양면 안포리 1917,34.6476255568712,127.629759271186,,,,18,대중제,,,,,false,false,false,false,{},,디오션CC은(는) 전라 지역의 대중제 골프장입니다.,,public_data,2026-06-18T01:00:04.006Z,2026-06-18T01:00:04.006Z
gc-349a94f1be3f,세이지우드 여수경도,전라,전남,전남 여수시 대경도길 111,34.7139138479231,127.725536348487,,,,27,대중제,,,,,false,false,false,false,{},,세이지우드 여수경도은(는) 전라 지역의 대중제 골프장입니다.,,public_data,2026-06-18T01:00:04.006Z,2026-06-18T01:00:04.006Z
gc-295d6bb19311,포라이즌,전라,전남,전남 순천시 별량면 오실길 333,34.8947808413632,127.448205259027,,,,27,회원제,,,,,false,false,false,false,{},,포라이즌은(는) 전라 지역의 회원제 골프장입니다.,,public_data,2026-06-18T01:00:04.006Z,2026-06-18T01:00:04.006Z
gc-95d86b96417d,파인힐스CC,전라,전남,전남 순천시 주암면 복다리 산 27,35.03465131087175,127.27219789537146,,,,27,대중제,,,,,false,false,false,false,{},,파인힐스CC은(는) 전라 지역의 대중제 골프장입니다.,,public_data,2026-06-18T01:00:04.006Z,2026-06-18T01:00:04.006Z
gc-dfddaf985536,순천CC,전라,전남,전남 순천시 별량면 동화사길 85,34.8665346567596,127.405960357161,,,,9,대중제,,,,,false,false,false,false,{},,순천CC은(는) 전라 지역의 대중제 골프장입니다.,,public_data,2026-06-18T01:00:04.006Z,2026-06-18T01:00:04.006Z
gc-a4b9d0a94686,순천부영CC,전라,전남,전남 순천시 해룡면 신대로 188,34.9400541615755,127.555508654944,,,,18,대중제,,,,,false,false,false,false,{},,순천부영CC은(는) 전라 지역의 대중제 골프장입니다.,,public_data,2026-06-18T01:00:04.006Z,2026-06-18T01:00:04.006Z
gc-dcb20414b48e,나주CC,전라,전남,전남 나주시 공산면 상방리 1-1,34.9420110168019,126.63987065885,,,,9,대중제,,,,,false,false,false,false,{},,나주CC은(는) 전라 지역의 대중제 골프장입니다.,,public_data,2026-06-18T01:00:04.006Z,2026-06-18T01:00:04.006Z
gc-2042973e4c2d,나주힐스CC,전라,전남,전남 나주시 세지면 성산리 820,34.8939024354908,126.725676551784,,,,9,대중제,,,,,false,false,false,false,{},,나주힐스CC은(는) 전라 지역의 대중제 골프장입니다.,,public_data,2026-06-18T01:00:04.006Z,2026-06-18T01:00:04.006Z
gc-e87bc5cc22aa,광양CC,전라,전남,전남 광양시 가야로 223,34.956640613427,127.710252718765,,,,6,대중제,,,,,false,false,false,false,{},,광양CC은(는) 전라 지역의 대중제 골프장입니다.,,public_data,2026-06-18T01:00:04.006Z,2026-06-18T01:00:04.006Z
gc-1236a882f178,창평CC,전라,전남,전남 담양군 창평면 오강리 27-2,35.2227349813439,127.014475378088,,,,9,대중제,,,,,false,false,false,false,{},,창평CC은(는) 전라 지역의 대중제 골프장입니다.,,public_data,2026-06-18T01:00:04.006Z,2026-06-18T01:00:04.006Z
gc-98d4ad236944,레이나CC,전라,전남,전남 담양군 담양읍 깊은실길 169,35.3103160190929,127.017294612833,,,,18,대중제,,,,,false,false,false,false,{},,레이나CC은(는) 전라 지역의 대중제 골프장입니다.,,public_data,2026-06-18T01:00:04.006Z,2026-06-18T01:00:04.006Z
gc-353e04416544,죽향CC,전라,전남,전남 담양군 창평면 창평로 159,35.2676397174275,126.99234453756,,,,9,대중제,,,,,false,false,false,false,{},,죽향CC은(는) 전라 지역의 대중제 골프장입니다.,,public_data,2026-06-18T01:00:04.006Z,2026-06-18T01:00:04.006Z
gc-7be0893151f7,광주CC,전라,전남,전남 곡성군 옥과면 입면로 455,35.3101553221846,127.169929617905,,,,27,회원제,,,,,false,false,false,false,{},,광주CC은(는) 전라 지역의 회원제 골프장입니다.,,public_data,2026-06-18T01:00:04.006Z,2026-06-18T01:00:04.006Z
gc-39d4525a34c6,옥과기안CC,전라,전남,전남 곡성군 옥과면 소룡리 427-2,35.289413952499,127.163367213014,,,,9,대중제,,,,,false,false,false,false,{},,옥과기안CC은(는) 전라 지역의 대중제 골프장입니다.,,public_data,2026-06-18T01:00:04.006Z,2026-06-18T01:00:04.006Z
gc-8c40f9db402e,르오네뜨CC,전라,전남,전남 곡성군 오산면 오산로 819-126,35.2515187402352,127.098353147998,,,,9,대중제,,,,,false,false,false,false,{},,르오네뜨CC은(는) 전라 지역의 대중제 골프장입니다.,,public_data,2026-06-18T01:00:04.006Z,2026-06-18T01:00:04.006Z
gc-496a04b9cf3f,보성CC,전라,전남,전남 보성군 조성면 대곡리 1117,34.816346479659,127.224650096473,,,,18,대중제,,,,,false,false,false,false,{},,보성CC은(는) 전라 지역의 대중제 골프장입니다.,,public_data,2026-06-18T01:00:04.006Z,2026-06-18T01:00:04.006Z
gc-2d39844d8485,보성에덴CC,전라,전남,전남 보성군 보성읍 쾌상리 산 251,34.75212858802739,127.05449058625757,,,,9,대중제,,,,,false,false,false,false,{},,보성에덴CC은(는) 전라 지역의 대중제 골프장입니다.,,public_data,2026-06-18T01:00:04.006Z,2026-06-18T01:00:04.006Z
gc-658ae3503358,엘리체CC,전라,전남,전남 화순군 춘양면 장곡길 55,34.9570450022567,126.916126044049,,,,18,회원제,,,,,false,false,false,false,{},,엘리체CC은(는) 전라 지역의 회원제 골프장입니다.,,public_data,2026-06-18T01:00:04.006Z,2026-06-18T01:00:04.006Z
gc-a6fee0f415b7,화순CC,전라,전남,전남 화순군 도곡면 천태로 1000-151,34.9769304183796,126.899375559468,,,,27,회원제,,,,,false,false,false,false,{},,화순CC은(는) 전라 지역의 회원제 골프장입니다.,,public_data,2026-06-18T01:00:04.006Z,2026-06-18T01:00:04.006Z
gc-ecd9077e6622,조아밸리CC,전라,전남,전남 화순군 도곡면 고인돌2로 450,34.9893119781903,126.937028398751,,,,9,대중제,,,,,false,false,false,false,{},,조아밸리CC은(는) 전라 지역의 대중제 골프장입니다.,,public_data,2026-06-18T01:00:04.006Z,2026-06-18T01:00:04.006Z
gc-e8468ec9b024,무등산CC,전라,전남,전남 화순군 화순읍 오성로 292-90,35.0474823722355,126.935958637583,,,,27,대중제,,,,,false,false,false,false,{},,무등산CC은(는) 전라 지역의 대중제 골프장입니다.,,public_data,2026-06-18T01:00:04.006Z,2026-06-18T01:00:04.006Z
gc-9885ff9a556f,JNJ골프리조트,전라,장흥군,장흥군 장평면 제산기동로 326,34.8027049406644,126.970800075955,,,,27,대중제,,,,,false,false,false,false,{},,JNJ골프리조트은(는) 전라 지역의 대중제 골프장입니다.,,public_data,2026-06-18T01:00:04.006Z,2026-06-18T01:00:04.006Z
gc-d5a6f91a588a,다산베아채골프&리조트,전라,전남,전남 강진군 도암면 학장용산길 101,34.5480223406807,126.758502323598,,,,27,대중제,,,,,false,false,false,false,{},,다산베아채골프&리조트은(는) 전라 지역의 대중제 골프장입니다.,,public_data,2026-06-18T01:00:04.006Z,2026-06-18T01:00:04.006Z
gc-050aa8bd6c6f,오시아노골프클럽,전라,해남군,해남군 화원면 시아로 224,34.6967179585997,126.262401126232,,,,9,대중제,,,,,false,false,false,false,{},,오시아노골프클럽은(는) 전라 지역의 대중제 골프장입니다.,,public_data,2026-06-18T01:00:04.006Z,2026-06-18T01:00:04.006Z
gc-437ea8156737,파인비치골프링크스,전라,해남군,해남군 화원면 시아로 224,34.6967179585997,126.262401126232,,,,18,대중제,,,,,false,false,false,false,{},,파인비치골프링크스은(는) 전라 지역의 대중제 골프장입니다.,,public_data,2026-06-18T01:00:04.006Z,2026-06-18T01:00:04.006Z
gc-5b534d8afc35,솔라시도CC,전라,해남군,해남군 산이면 산이로 2247,34.7065884369992,126.387729866188,,,,18,대중제,,,,,false,false,false,false,{},,솔라시도CC은(는) 전라 지역의 대중제 골프장입니다.,,public_data,2026-06-18T01:00:04.006Z,2026-06-18T01:00:04.006Z
gc-068d49f9d08c,아크로CC,전라,전남,전남 영암군 금정면 안적동길 403,34.8731457396883,126.784352116105,,,,27,대중제,,,,,false,false,false,false,{},,아크로CC은(는) 전라 지역의 대중제 골프장입니다.,,public_data,2026-06-18T01:00:04.006Z,2026-06-18T01:00:04.006Z
gc-5085ddf672a6,cosmos 1,전라,영암군,영암군 삼호읍 에프원로 121-4,34.7342809371332,126.46482037056,,,,18,대중제,,,,,false,false,false,false,{},,cosmos 1은(는) 전라 지역의 대중제 골프장입니다.,,public_data,2026-06-18T01:00:04.006Z,2026-06-18T01:00:04.006Z
gc-138f4498623e,무안CC,전라,전남,전남 무안군 청계면 도대리 818,34.9577459287041,126.401131968298,,,,54,대중제,,,,,false,false,false,false,{},,무안CC은(는) 전라 지역의 대중제 골프장입니다.,,public_data,2026-06-18T01:00:04.006Z,2026-06-18T01:00:04.006Z
gc-a043a2488af5,클린밸리CC,전라,전남,전남 무안군 청계면 태봉길 33-100,34.9446689574825,126.458164938823,,,,18,대중제,,,,,false,false,false,false,{},,클린밸리CC은(는) 전라 지역의 대중제 골프장입니다.,,public_data,2026-06-18T01:00:04.006Z,2026-06-18T01:00:04.006Z
gc-80a626b2053e,엘리체CC,전라,전남,전남 함평군 학교면 서당매길 242,35.0053983866296,126.558318994596,,,,27,대중제,,,,,false,false,false,false,{},,엘리체CC은(는) 전라 지역의 대중제 골프장입니다.,,public_data,2026-06-18T01:00:04.006Z,2026-06-18T01:00:04.006Z
gc-c8fc5eccf7b9,천지CC,전라,전남,전남 함평군 함장로 889-11,35.0502180075752,126.49912356728,,,,9,대중제,,,,,false,false,false,false,{},,천지CC은(는) 전라 지역의 대중제 골프장입니다.,,public_data,2026-06-18T01:00:04.006Z,2026-06-18T01:00:04.006Z
gc-e50b3c8c38c0,베르힐컨트리클럽,전라,전남,전남 함평군 대동면 대동길 408,35.0782592663044,126.564189483075,,,,27,대중제,,,,,false,false,false,false,{},,베르힐컨트리클럽은(는) 전라 지역의 대중제 골프장입니다.,,public_data,2026-06-18T01:00:04.006Z,2026-06-18T01:00:04.006Z
gc-cc31ca848991,웨스트오션CC,전라,영광군,영광군 백수읍 해안로 1362-70,35.3553396694714,126.411422006391,,,,18,대중제,,,,,false,false,false,false,{},,웨스트오션CC은(는) 전라 지역의 대중제 골프장입니다.,,public_data,2026-06-18T01:00:04.006Z,2026-06-18T01:00:04.006Z
gc-3355d2573fd4,에콜리안영광골프장,전라,영광군,영광군 영광읍 월현로 1길 40,35.2946104210983,126.501258746287,,,,9,대중제,,,,,false,false,false,false,{},,에콜리안영광골프장은(는) 전라 지역의 대중제 골프장입니다.,,public_data,2026-06-18T01:00:04.006Z,2026-06-18T01:00:04.006Z
gc-667fefd06c3f,푸른솔 골프클럽,전라,전남,전남 장성군 동화면 임정로 155,35.252596512445,126.716121328578,,,,27,대중제,,,,,false,false,false,false,{},,푸른솔 골프클럽은(는) 전라 지역의 대중제 골프장입니다.,,public_data,2026-06-18T01:00:04.006Z,2026-06-18T01:00:04.006Z
gc-db3f5634c5ee,백양우리CC,전라,전남,전남 장성군 북이면 사거리 752-1,35.4231416470752,126.808430125127,,,,9,대중제,,,,,false,false,false,false,{},,백양우리CC은(는) 전라 지역의 대중제 골프장입니다.,,public_data,2026-06-18T01:00:04.006Z,2026-06-18T01:00:04.006Z
gc-0b047be49f03,전주월드컵골프장,전라,전북특별자치도,전북특별자치도 전주시 덕진구 온고을로 672,35.8637892738735,127.064866232265,,,,9,대중제,,,,,false,false,false,false,{},,전주월드컵골프장은(는) 전라 지역의 대중제 골프장입니다.,,public_data,2026-06-18T01:00:04.006Z,2026-06-18T01:00:04.006Z
gc-14ba1ad9ac28,군산CC,전라,전북특별자치도,전북특별자치도 군산시 옥서면 옥봉리 1741-1,35.89445103834057,126.6550889348115,,,,81,대중제,,,,,false,false,false,false,{},,군산CC은(는) 전라 지역의 대중제 골프장입니다.,,public_data,2026-06-18T01:00:04.006Z,2026-06-18T01:00:04.006Z
gc-e66e37a5892a,익산컨트리클럽,전라,전북특별자치도,전북특별자치도 익산시 무왕로38길 111,35.9617622439429,127.026652973766,,,,18,대중제,,,,,false,false,false,false,{},,익산컨트리클럽은(는) 전라 지역의 대중제 골프장입니다.,,public_data,2026-06-18T01:00:04.006Z,2026-06-18T01:00:04.006Z
gc-7e17709a629a,상떼힐CC,전라,전북특별자치도,전북특별자치도 익산시 무왕로38길 111,35.9617622439429,127.026652973766,,,,6,대중제,,,,,false,false,false,false,{},,상떼힐CC은(는) 전라 지역의 대중제 골프장입니다.,,public_data,2026-06-18T01:00:04.006Z,2026-06-18T01:00:04.006Z
gc-45a6c468cd91,웅포컨트리클럽,전라,전북특별자치도,전북특별자치도 익산시 웅포면 강변로 130,36.0698119563331,126.891501581389,,,,18,대중제,,,,,false,false,false,false,{},,웅포컨트리클럽은(는) 전라 지역의 대중제 골프장입니다.,,public_data,2026-06-18T01:00:04.006Z,2026-06-18T01:00:04.006Z
gc-11d936495fd4,포세븐금강컨트리클럽,전라,전북특별자치도,전북특별자치도 익산시 웅포면 강변로 130,36.0698119563331,126.891501581389,,,,18,대중제,,,,,false,false,false,false,{},,포세븐금강컨트리클럽은(는) 전라 지역의 대중제 골프장입니다.,,public_data,2026-06-18T01:00:04.006Z,2026-06-18T01:00:04.006Z
gc-db9ee81a1a70,내장산골프&리조트,전라,전북특별자치도,전북특별자치도 정읍시 첨단과학로 476,35.5026154650012,126.865877631961,,,,18,대중제,,,,,false,false,false,false,{},,내장산골프&리조트은(는) 전라 지역의 대중제 골프장입니다.,,public_data,2026-06-18T01:00:04.006Z,2026-06-18T01:00:04.006Z
gc-555dca97c252,남원상록골프장,전라,전북특별자치도,전북특별자치도 남원시 대산면 월계길 11,35.4171515505676,127.297192458702,,,,18,대중제,,,,,false,false,false,false,{},,남원상록골프장은(는) 전라 지역의 대중제 골프장입니다.,,public_data,2026-06-18T01:00:04.006Z,2026-06-18T01:00:04.006Z
gc-93d79516b4dd,아네스빌CC,전라,전북특별자치도,전북특별자치도 김제시 황산면 높은메길 160-39,35.7863110783146,126.959544414137,,,,9,대중제,,,,,false,false,false,false,{},,아네스빌CC은(는) 전라 지역의 대중제 골프장입니다.,,public_data,2026-06-18T01:00:04.006Z,2026-06-18T01:00:04.006Z
gc-236bf8a0310c,에스페란사GC,전라,전북특별자치도,전북특별자치도 김제시 금구면 낙산로 120,35.8069693519376,127.008255764988,,,,9,대중제,,,,,false,false,false,false,{},,에스페란사GC은(는) 전라 지역의 대중제 골프장입니다.,,public_data,2026-06-18T01:00:04.006Z,2026-06-18T01:00:04.006Z
gc-8cda6b72d361,김제스파힐스CC,전라,전북특별자치도,전북특별자치도 김제시 온천길 37,35.8277496994561,126.915764235508,,,,18,대중제,,,,,false,false,false,false,{},,김제스파힐스CC은(는) 전라 지역의 대중제 골프장입니다.,,public_data,2026-06-18T01:00:04.006Z,2026-06-18T01:00:04.006Z
gc-51bc2ed864d2,더나인골프클럽,전라,전북특별자치도,전북특별자치도 김제시 금구면 대화1길 8-75,35.7952682184055,127.034665189618,,,,9,대중제,,,,,false,false,false,false,{},,더나인골프클럽은(는) 전라 지역의 대중제 골프장입니다.,,public_data,2026-06-18T01:00:04.006Z,2026-06-18T01:00:04.006Z
gc-3dc796a63edd,OKCC,전라,전북특별자치도,전북특별자치도 완주군 소양면 화심리 300,35.8169122160294,127.261361253124,,,,9,대중제,,,,,false,false,false,false,{},,OKCC은(는) 전라 지역의 대중제 골프장입니다.,,public_data,2026-06-18T01:00:04.006Z,2026-06-18T01:00:04.006Z
gc-0bd7dd5c03df,케이밸리컨트리클럽,전라,전북특별자치도,전북특별자치도 완주군 운주면 산북리 65-4,36.0766401997069,127.354599302375,,,,9,대중제,,,,,false,false,false,false,{},,케이밸리컨트리클럽은(는) 전라 지역의 대중제 골프장입니다.,,public_data,2026-06-18T01:00:04.006Z,2026-06-18T01:00:04.006Z
gc-af220a47e9ad,써미트CC,전라,전북특별자치도,전북특별자치도 진안군 부귀면 부귀로 72-161,35.8408563308977,127.325185288209,,,,27,대중제,,,,,false,false,false,false,{},,써미트CC은(는) 전라 지역의 대중제 골프장입니다.,,public_data,2026-06-18T01:00:04.006Z,2026-06-18T01:00:04.006Z
gc-dede5bb789cf,무주덕유산CC,전라,전북특별자치도,전북특별자치도 무주군 설천면 만선로 185,35.8897985848155,127.73138999061,,,,18,회원제,,,,,false,false,false,false,{},,무주덕유산CC은(는) 전라 지역의 회원제 골프장입니다.,,public_data,2026-06-18T01:00:04.006Z,2026-06-18T01:00:04.006Z
gc-6d636874e191,장수골프리조트,전라,전북특별자치도,전북특별자치도 장수군 계남면 장안산로 303,35.6784956259927,127.595675347913,,,,18,대중제,,,,,false,false,false,false,{},,장수골프리조트은(는) 전라 지역의 대중제 골프장입니다.,,public_data,2026-06-18T01:00:04.006Z,2026-06-18T01:00:04.006Z
gc-a2c85434539e,전주샹그릴라CC,전라,전북특별자치도,전북특별자치도 임실군 신덕면 수지로 559-90,35.6947019033968,127.208048527354,,,,27,회원제,,,,,false,false,false,false,{},,전주샹그릴라CC은(는) 전라 지역의 회원제 골프장입니다.,,public_data,2026-06-18T01:00:04.006Z,2026-06-18T01:00:04.006Z
gc-6d34f609ed90,금과골프장,전라,전북특별자치도,전북특별자치도 순창군 금과면 담순로 716,35.3544912571573,127.083779195231,,,,6,대중제,,,,,false,false,false,false,{},,금과골프장은(는) 전라 지역의 대중제 골프장입니다.,,public_data,2026-06-18T01:00:04.006Z,2026-06-18T01:00:04.006Z
gc-fd40b7bf3b76,디케이레저,전라,전북특별자치도,전북특별자치도 순창군 순창읍 금산로 152,35.3867645534204,127.125519045226,,,,9,대중제,,,,,false,false,false,false,{},,디케이레저은(는) 전라 지역의 대중제 골프장입니다.,,public_data,2026-06-18T01:00:04.006Z,2026-06-18T01:00:04.006Z
gc-e6f654f8efb6,고창CC,전라,전북특별자치도,전북특별자치도 고창군 심원면 애향갯벌로 70,35.5159575435727,126.502268050201,,,,21,대중제,,,,,false,false,false,false,{},,고창CC은(는) 전라 지역의 대중제 골프장입니다.,,public_data,2026-06-18T01:00:04.006Z,2026-06-18T01:00:04.006Z
gc-8f5c8d0f5d46,석정힐CC,전라,전북특별자치도,전북특별자치도 고창군 고창읍 석정2로 192,35.4300780280256,126.74162742877,,,,18,대중제,,,,,false,false,false,false,{},,석정힐CC은(는) 전라 지역의 대중제 골프장입니다.,,public_data,2026-06-18T01:00:04.006Z,2026-06-18T01:00:04.006Z
gc-c96a1655bd5c,타미우스cc,제주,제주시,제주특별자치도 제주시 애월읍 화전길 201,33.3482636532172,126.385652476576,,,,27,회원제,,,,,false,false,false,false,{},,타미우스cc은(는) 제주 지역의 회원제 골프장입니다.,,public_data,2026-06-18T01:00:04.006Z,2026-06-18T01:00:04.006Z
gc-7d2ed71b8086,그린필드GC,제주,제주시,제주특별자치도 제주시 조천읍 번영로 1040-70,33.4638600500371,126.645487163873,,,,18,회원제,,,,,false,false,false,false,{},,그린필드GC은(는) 제주 지역의 회원제 골프장입니다.,,public_data,2026-06-18T01:00:04.006Z,2026-06-18T01:00:04.006Z
gc-aff117457c45,라헨느CC,제주,제주시,제주특별자치도 제주시 봉개동 241-13,33.4541450430555,126.611786537072,,,,18,회원제,,,,,false,false,false,false,{},,라헨느CC은(는) 제주 지역의 회원제 골프장입니다.,,public_data,2026-06-18T01:00:04.006Z,2026-06-18T01:00:04.006Z
gc-ed4f10d4c149,볼카노골프앤리조트,제주,서귀포시,제주특별자치도 서귀포시 산록남로 1391,33.2971177279609,126.435385898389,,,,27,회원제,,,,,false,false,false,false,{},,볼카노골프앤리조트은(는) 제주 지역의 회원제 골프장입니다.,,public_data,2026-06-18T01:00:04.006Z,2026-06-18T01:00:04.006Z
gc-7860808d29d1,테디밸리,제주,서귀포시,제주특별자치도 서귀포시 한창로 365,33.288986163678,126.351409555697,,,,18,회원제,,,,,false,false,false,false,{},,테디밸리은(는) 제주 지역의 회원제 골프장입니다.,,public_data,2026-06-18T01:00:04.006Z,2026-06-18T01:00:04.006Z
gc-cf50ab88350d,㈜그랜드부민 꿈드림목장,제주,제주시,제주특별자치도 제주시 516로 2596-117,33.4383123925104,126.599471222969,,,,9,대중제,,,,,false,false,false,false,{},,㈜그랜드부민 꿈드림목장은(는) 제주 지역의 대중제 골프장입니다.,,public_data,2026-06-18T01:00:04.006Z,2026-06-18T01:00:04.006Z
gc-464e4a545027,에코랜드,제주,제주시,제주특별자치도 제주시 조천읍 번영로 1278-169,33.4553485144602,126.668852765522,,,,27,대중제,,,,,false,false,false,false,{},,에코랜드은(는) 제주 지역의 대중제 골프장입니다.,,public_data,2026-06-18T01:00:04.006Z,2026-06-18T01:00:04.006Z
gc-0e0131544801,라온골프클럽,제주,제주시,제주특별자치도 제주시 한경면 용금로 998,33.3446191070975,126.278270296289,,,,27,대중제,,,,,false,false,false,false,{},,라온골프클럽은(는) 제주 지역의 대중제 골프장입니다.,,public_data,2026-06-18T01:00:04.006Z,2026-06-18T01:00:04.006Z
gc-84bb21f2b77e,크라운CC,제주,제주시,제주특별자치도 제주시 조천읍 북선로 125,33.5328261441026,126.699337553719,,,,27,대중제,,,,,false,false,false,false,{},,크라운CC은(는) 제주 지역의 대중제 골프장입니다.,,public_data,2026-06-18T01:00:04.006Z,2026-06-18T01:00:04.006Z
gc-5f82bbc964a8,더시에나CC,제주,제주시,제주특별자치도 제주시 516로 2695,33.4305556486873,126.583737525344,,,,18,대중제,,,,,false,false,false,false,{},,더시에나CC은(는) 제주 지역의 대중제 골프장입니다.,,public_data,2026-06-18T01:00:04.006Z,2026-06-18T01:00:04.006Z
gc-ad576aa399b4,아덴힐,제주,제주시,제주특별자치도 제주시 화전길 82,33.3475328879275,126.368892810347,,,,18,대중제,,,,,false,false,false,false,{},,아덴힐은(는) 제주 지역의 대중제 골프장입니다.,,public_data,2026-06-18T01:00:04.006Z,2026-06-18T01:00:04.006Z
gc-d03e2b710be0,한라산CC,제주,제주시,제주특별자치도 제주시 선돌목동길 56-46,33.4441227029338,126.544710028678,,,,18,대중제,,,,,false,false,false,false,{},,한라산CC은(는) 제주 지역의 대중제 골프장입니다.,,public_data,2026-06-18T01:00:04.006Z,2026-06-18T01:00:04.006Z
gc-baa4851e3f89,플라자CC,제주,제주시,제주특별자치도 제주시 명림로 575-107,33.4490025432113,126.637358132958,,,,9,대중제,,,,,false,false,false,false,{},,플라자CC은(는) 제주 지역의 대중제 골프장입니다.,,public_data,2026-06-18T01:00:04.006Z,2026-06-18T01:00:04.006Z
gc-e0165d4e49cd,부영CC,제주,서귀포시,제주특별자치도 서귀포시 남원읍 남조로 960,33.3592182965721,126.712464223483,,,,27,대중제,,,,,false,false,false,false,{},,부영CC은(는) 제주 지역의 대중제 골프장입니다.,,public_data,2026-06-18T01:00:04.006Z,2026-06-18T01:00:04.006Z
gc-7dcfb1b60ab9,서귀포팬텀 골프앤리조트,제주,서귀포시,제주특별자치도 서귀포시 산록남로 2914,33.3103680938349,126.588773640634,,,,18,대중제,,,,,false,false,false,false,{},,서귀포팬텀 골프앤리조트은(는) 제주 지역의 대중제 골프장입니다.,,public_data,2026-06-18T01:00:04.006Z,2026-06-18T01:00:04.006Z
gc-c96f2da1a4dc,중문GC,제주,서귀포시,제주특별자치도 서귀포시 중문관광로 72번길 60,33.254218609132,126.411434347695,,,,18,대중제,,,,,false,false,false,false,{},,중문GC은(는) 제주 지역의 대중제 골프장입니다.,,public_data,2026-06-18T01:00:04.006Z,2026-06-18T01:00:04.006Z
gc-2372496c2665,스프링데일,제주,서귀포시,제주특별자치도 서귀포시 남원읍 서성로 459,33.3295510824481,126.638487909207,,,,18,대중제,,,,,false,false,false,false,{},,스프링데일은(는) 제주 지역의 대중제 골프장입니다.,,public_data,2026-06-18T01:00:04.006Z,2026-06-18T01:00:04.006Z
gc-a441de4b462a,더클래식CC,제주,서귀포시,제주특별자치도 서귀포시 남원읍 남조로 1105,33.3706270995717,126.679888916578,,,,18,대중제,,,,,false,false,false,false,{},,더클래식CC은(는) 제주 지역의 대중제 골프장입니다.,,public_data,2026-06-18T01:00:04.006Z,2026-06-18T01:00:04.006Z
gc-af1917ce6948,샤인빌파크CC,제주,서귀포시,제주특별자치도 서귀포시 표선면 가시로 384,33.3451972184832,126.788290795301,,,,18,대중제,,,,,false,false,false,false,{},,샤인빌파크CC은(는) 제주 지역의 대중제 골프장입니다.,,public_data,2026-06-18T01:00:04.006Z,2026-06-18T01:00:04.006Z
gc-e401cda7a8ad,우정힐스 컨트리클럽,충청,목천읍,목천읍 충절로 1048-68,36.7697371359643,127.222832303948,,,,18,회원제,,,,,false,false,false,false,{},,우정힐스 컨트리클럽은(는) 충청 지역의 회원제 골프장입니다.,,public_data,2026-06-18T01:00:04.006Z,2026-06-18T01:00:04.006Z
gc-7681bcbcf45d,천안상록 골프장,충청,수신면,수신면 수신로 576,36.7401762862144,127.285546921205,,,,27,대중제,,,,,false,false,false,false,{},,천안상록 골프장은(는) 충청 지역의 대중제 골프장입니다.,,public_data,2026-06-18T01:00:04.006Z,2026-06-18T01:00:04.006Z
gc-2c27b8854e6b,마론컨트리클럽,충청,동남구,동남구 북면 납안5길 74,36.8660647058933,127.256979447377,,,,18,대중제,,,,,false,false,false,false,{},,마론컨트리클럽은(는) 충청 지역의 대중제 골프장입니다.,,public_data,2026-06-18T01:00:04.006Z,2026-06-18T01:00:04.006Z
gc-9655898af6a6,프린세스 골프클럽,충청,공주시,공주시 정안면 방자들길 81-50(인풍리),36.6493650199748,127.116178554693,,,,18,대중제,,,,,false,false,false,false,{},,프린세스 골프클럽은(는) 충청 지역의 대중제 골프장입니다.,,public_data,2026-06-18T01:00:04.006Z,2026-06-18T01:00:04.006Z
gc-46caa66a0c89,골드리버CC,충청,공주시,충남 공주시 의당면 청룡리 220-2,36.5036543820055,127.163327403034,,,,9,대중제,,,,,false,false,false,false,{},,골드리버CC은(는) 충청 지역의 대중제 골프장입니다.,,public_data,2026-06-18T01:00:04.006Z,2026-06-18T01:00:04.006Z
gc-25f812ff383a,계룡산골프장,충청,공주시,공주시 계룡면 아랫난댕이길 17(내흥리),36.4070094082741,127.184553179947,,,,9,대중제,,,,,false,false,false,false,{},,계룡산골프장은(는) 충청 지역의 대중제 골프장입니다.,,public_data,2026-06-18T01:00:04.006Z,2026-06-18T01:00:04.006Z
gc-5631e69db45e,보령베이스CC,충청,보령시,보령시 옥마벚길 10,36.3319722823917,126.622983623675,,,,9,대중제,,,,,false,false,false,false,{},,보령베이스CC은(는) 충청 지역의 대중제 골프장입니다.,,public_data,2026-06-18T01:00:04.006Z,2026-06-18T01:00:04.006Z
gc-de2b5fc511da,에스앤 골프리조트,충청,보령시,보령시 남포면 양항리 650-2,36.2870352407353,126.553209661043,,,,9,대중제,,,,,false,false,false,false,{},,에스앤 골프리조트은(는) 충청 지역의 대중제 골프장입니다.,,public_data,2026-06-18T01:00:04.006Z,2026-06-18T01:00:04.006Z
gc-e91593f65b4b,도고컨트리 구락부,충청,선장면,선장면 삼봉산길 188,36.7776858877581,126.890352162078,,,,18,회원제,,,,,false,false,false,false,{},,도고컨트리 구락부은(는) 충청 지역의 회원제 골프장입니다.,,public_data,2026-06-18T01:00:04.006Z,2026-06-18T01:00:04.006Z
gc-7c044b23d1a4,에스지아름다운골프&리조트,충청,영인면,영인면 영인산로 440,36.8462680776647,126.918644640822,,,,27,대중제,,,,,false,false,false,false,{},,에스지아름다운골프&리조트은(는) 충청 지역의 대중제 골프장입니다.,,public_data,2026-06-18T01:00:04.006Z,2026-06-18T01:00:04.006Z
gc-c9dda49e7539,서산수 골프앤리조트,충청,서산시,서산시 대산읍 삼길포7로 8,36.9955891178713,126.448629227429,,,,18,대중제,,,,,false,false,false,false,{},,서산수 골프앤리조트은(는) 충청 지역의 대중제 골프장입니다.,,public_data,2026-06-18T01:00:04.006Z,2026-06-18T01:00:04.006Z
gc-e3f0db78167a,더힐 컨트리클럽,충청,논산시,논산시 상월면 선비로 1079,36.2773296168141,127.170572780596,,,,9,대중제,,,,,false,false,false,false,{},,더힐 컨트리클럽은(는) 충청 지역의 대중제 골프장입니다.,,public_data,2026-06-18T01:00:04.006Z,2026-06-18T01:00:04.006Z
gc-c0cdb2271518,아리스타 CC,충청,연무읍,연무읍 황화정리 산100,36.0876202256154,127.130672158469,,,,18,대중제,,,,,false,false,false,false,{},,아리스타 CC은(는) 충청 지역의 대중제 골프장입니다.,,public_data,2026-06-18T01:00:04.006Z,2026-06-18T01:00:04.006Z
gc-699579941cf6,파인스톤 컨트리클럽,충청,당진시,당진시 송산면 무수들길 90,36.9646585543513,126.667729295314,,,,18,대중제,,,,,false,false,false,false,{},,파인스톤 컨트리클럽은(는) 충청 지역의 대중제 골프장입니다.,,public_data,2026-06-18T01:00:04.006Z,2026-06-18T01:00:04.006Z
gc-95696dbd5d40,파나시아 골프클럽,충청,당진시,당진시 신평면 계명길 33,36.8840371140406,126.794460294727,,,,9,대중제,,,,,false,false,false,false,{},,파나시아 골프클럽은(는) 충청 지역의 대중제 골프장입니다.,,public_data,2026-06-18T01:00:04.006Z,2026-06-18T01:00:04.006Z
gc-5df84bcc3bd5,플라밍고C.C,충청,당진시,당진시 석문면 산단8로 299,37.011687161382,126.58159117569,,,,30,대중제,,,,,false,false,false,false,{},,플라밍고C.C은(는) 충청 지역의 대중제 골프장입니다.,,public_data,2026-06-18T01:00:04.006Z,2026-06-18T01:00:04.006Z
gc-b48ba0827aa2,에딘버러 컨트리클럽,충청,금산군,금산군 진산면 살구정길 167,36.1527062837259,127.326031572159,,,,18,회원제,,,,,false,false,false,false,{},,에딘버러 컨트리클럽은(는) 충청 지역의 회원제 골프장입니다.,,public_data,2026-06-18T01:00:04.006Z,2026-06-18T01:00:04.006Z
gc-19f328d2bc87,백제컨트리클럽,충청,부여군,부여군 은산면 충절로 3734-82,36.3475004142716,126.790696813223,,,,27,대중제,,,,,false,false,false,false,{},,백제컨트리클럽은(는) 충청 지역의 대중제 골프장입니다.,,public_data,2026-06-18T01:00:04.006Z,2026-06-18T01:00:04.006Z
gc-41c9fac17790,㈜호텔롯데 스카이힐 부여CC,충청,부여군,부여군 규암면 백제문로 470,36.3041707572953,126.909307996803,,,,18,대중제,,,,,false,false,false,false,{},,㈜호텔롯데 스카이힐 부여CC은(는) 충청 지역의 대중제 골프장입니다.,,public_data,2026-06-18T01:00:04.006Z,2026-06-18T01:00:04.006Z
gc-b21ce78f76ca,골든베이골프&리조트,충청,태안군,충남 태안군 근흥면 정죽리 386-1,36.710103009972,126.172537879751,,,,27,대중제,,,,,false,false,false,false,{},,골든베이골프&리조트은(는) 충청 지역의 대중제 골프장입니다.,,public_data,2026-06-18T01:00:04.006Z,2026-06-18T01:00:04.006Z
gc-2abf3143e489,스톤비치컨트리클럽,충청,태안군,충남 태안군 근흥면 정죽리 2261-1,36.68774457239597,126.1540277230728,,,,18,대중제,,,,,false,false,false,false,{},,스톤비치컨트리클럽은(는) 충청 지역의 대중제 골프장입니다.,,public_data,2026-06-18T01:00:04.006Z,2026-06-18T01:00:04.006Z
gc-bf183cd699c7,로얄링스 CC,충청,태안군,충남 태안군 태안읍 기업도시6길 43,36.722401864294,126.338733814966,,,,36,대중제,,,,,false,false,false,false,{},,로얄링스 CC은(는) 충청 지역의 대중제 골프장입니다.,,public_data,2026-06-18T01:00:04.006Z,2026-06-18T01:00:04.006Z
gc-167a7f95d402,솔라고CC,충청,태안군,충남 태안군 태안읍 소곳이길 92-234,36.69720528730836,126.32406211481442,,,,36,대중제,,,,,false,false,false,false,{},,솔라고CC은(는) 충청 지역의 대중제 골프장입니다.,,public_data,2026-06-18T01:00:04.006Z,2026-06-18T01:00:04.006Z
gc-04b372ccad13,내포골프클럽,충청,예산군,예산군 삽교읍 산수길 242(목리 1420),36.6743245772113,126.669824704344,,,,9,대중제,,,,,false,false,false,false,{},,내포골프클럽은(는) 충청 지역의 대중제 골프장입니다.,,public_data,2026-06-18T01:00:04.006Z,2026-06-18T01:00:04.006Z
gc-81f36c789316,그랜드cc,충청,청주시,충북 청주시 청원구 오창읍 화산리 163-2,36.72191611326156,127.38337956461453,,,,27,회원제,,,,,false,false,false,false,{},,그랜드cc은(는) 충청 지역의 회원제 골프장입니다.,,public_data,2026-06-18T01:00:04.006Z,2026-06-18T01:00:04.006Z
gc-6ea98adb1954,아난티 중앙골프클럽,충청,진천군,진천군 백곡면 배티로 818-105,36.9406017353876,127.337290417719,,,,27,회원제,,,,,false,false,false,false,{},,아난티 중앙골프클럽은(는) 충청 지역의 회원제 골프장입니다.,,public_data,2026-06-18T01:00:04.006Z,2026-06-18T01:00:04.006Z
gc-a81df4ea7927,천 룡cc,충청,진천군,진천군 이월면 진안로 347-123,36.94742557628,127.386771279558,,,,27,회원제,,,,,false,false,false,false,{},,천 룡cc은(는) 충청 지역의 회원제 골프장입니다.,,public_data,2026-06-18T01:00:04.006Z,2026-06-18T01:00:04.006Z
gc-8ccf3d19f9bb,세레니티cc,충청,청주시,청주시 서원구 남이면 문곡구절골길 235,36.5457271995704,127.390408510493,,,,18,회원제,,,,,false,false,false,false,{},,세레니티cc은(는) 충청 지역의 회원제 골프장입니다.,,public_data,2026-06-18T01:00:04.006Z,2026-06-18T01:00:04.006Z
gc-ce7b0e81cf22,스 타cc,충청,충주시,충주시 앙성면 상대촌1길 198,37.0828337941042,127.700611112981,,,,18,회원제,,,,,false,false,false,false,{},,스 타cc은(는) 충청 지역의 회원제 골프장입니다.,,public_data,2026-06-18T01:00:04.006Z,2026-06-18T01:00:04.006Z
gc-ae86fbe36e97,임페리얼레이크,충청,충주시,충주시 금가면 다래울길 52,37.0287161116907,127.867720774431,,,,18,대중제,,,,,false,false,false,false,{},,임페리얼레이크은(는) 충청 지역의 대중제 골프장입니다.,,public_data,2026-06-18T01:00:04.006Z,2026-06-18T01:00:04.006Z
gc-760b850e4451,천 룡cc,충청,진천군,진천군 이월면 진안로 425,36.953556651274,127.395820498984,,,,9,대중제,,,,,false,false,false,false,{},,천 룡cc은(는) 충청 지역의 대중제 골프장입니다.,,public_data,2026-06-18T01:00:04.006Z,2026-06-18T01:00:04.006Z
gc-606fb4b33249,떼제베운영,충청,청주시,청주시 흥덕구 옥산면 동림2길 149,36.6654954514899,127.319018623107,,,,36,대중제,,,,,false,false,false,false,{},,떼제베운영은(는) 충청 지역의 대중제 골프장입니다.,,public_data,2026-06-18T01:00:04.006Z,2026-06-18T01:00:04.006Z
gc-ac8ec878e912,썬밸리cc,충청,음성군,충북 음성군 삼성면 대사리 392,37.03597543990849,127.4648736095017,,,,18,대중제,,,,,false,false,false,false,{},,썬밸리cc은(는) 충청 지역의 대중제 골프장입니다.,,public_data,2026-06-18T01:00:04.006Z,2026-06-18T01:00:04.006Z
